{
  "mode": "staff",
  "staffName": "担当1",
  "pref": "28",
  "d": "202054202,202054203,202062001,202062002,202063101,202065001,202065002,202065003,202065005",
  "kinshi": [
    {
      "name": "福原様（戸建）",
      "addr": "兵庫県尼崎市次屋1-15-36",
      "lat": 34.7372915,
      "lng": 135.4400156,
      "staffName": "担当1"
    },
    {
      "name": "アミング潮江イースト１４－１号棟",
      "addr": "兵庫県尼崎市潮江1-14-1",
      "lat": 34.7341651,
      "lng": 135.4341653,
      "staffName": "担当1"
    },
    {
      "name": "アミング潮江イースト１５－１号棟",
      "addr": "兵庫県尼崎市潮江1-15-1",
      "lat": 34.7345304,
      "lng": 135.4338877,
      "staffName": "担当1"
    },
    {
      "name": "アミング潮江イースト１５－２号棟",
      "addr": "兵庫県尼崎市潮江1-15-2",
      "lat": 34.7345793,
      "lng": 135.4343797,
      "staffName": "担当1"
    },
    {
      "name": "アミング潮江イースト１５－３号棟",
      "addr": "兵庫県尼崎市潮江1-15-3",
      "lat": 34.7341343,
      "lng": 135.4350019,
      "staffName": "担当1"
    },
    {
      "name": "アミング潮江ウエスト２番館",
      "addr": "兵庫県尼崎市潮江1-16-1",
      "lat": 34.7346416,
      "lng": 135.432955,
      "staffName": "担当1"
    },
    {
      "name": "アミング潮江イースト２０－１号棟",
      "addr": "兵庫県尼崎市潮江1-20-1",
      "lat": 34.7349338,
      "lng": 135.4347648,
      "staffName": "担当1"
    },
    {
      "name": "アミング潮江イースト２１－１号棟",
      "addr": "兵庫県尼崎市潮江1-21-1",
      "lat": 34.735082,
      "lng": 135.4338823,
      "staffName": "担当1"
    },
    {
      "name": "アミング潮江ウエスト１番館",
      "addr": "兵庫県尼崎市潮江1-22-1",
      "lat": 34.73525360000001,
      "lng": 135.4323372,
      "staffName": "担当1"
    },
    {
      "name": "ローレルスクエア尼崎ルネ・ガーデンテラス",
      "addr": "兵庫県尼崎市潮江1-3-12",
      "lat": 34.7332802,
      "lng": 135.4292315,
      "staffName": "担当1"
    },
    {
      "name": "ローレルコート・クレヴィア尼崎駅前",
      "addr": "兵庫県尼崎市潮江1-2-1",
      "lat": 34.7325474,
      "lng": 135.4311943,
      "staffName": "担当1"
    },
    {
      "name": "ルネマスターズタワー",
      "addr": "兵庫県尼崎市潮江1-5-1",
      "lat": 34.7321855,
      "lng": 135.4331289,
      "staffName": "担当1"
    },
    {
      "name": "ラヴェール尼崎",
      "addr": "兵庫県尼崎市潮江1-11-1",
      "lat": 34.7332097,
      "lng": 135.4337352,
      "staffName": "担当1"
    },
    {
      "name": "辻本様(戸建)",
      "addr": "兵庫県尼崎市潮江1-31-22",
      "lat": 34.7355919,
      "lng": 135.4306067,
      "staffName": "担当1"
    },
    {
      "name": "UR都市機構ルゼフィール潮江1号棟【貼紙の見落とし注意！！】",
      "addr": "兵庫県尼崎市潮江1-6-1",
      "lat": 34.7325436,
      "lng": 135.434115,
      "staffName": "担当1"
    },
    {
      "name": "アミング潮江プラスト (1003号室)",
      "addr": "兵庫県尼崎市潮江1-4-2",
      "lat": 34.7336063,
      "lng": 135.4323379,
      "staffName": "担当1"
    },
    {
      "name": "筒井様（戸建）",
      "addr": "兵庫県尼崎市潮江2-26-5-1",
      "lat": 34.7368834,
      "lng": 135.4338334,
      "staffName": "担当1"
    },
    {
      "name": "添田様（戸建）",
      "addr": "兵庫県尼崎市潮江2-26-1",
      "lat": 34.7368044,
      "lng": 135.4340458,
      "staffName": "担当1"
    },
    {
      "name": "速水様（戸建）",
      "addr": "兵庫県尼崎市潮江3-13-17",
      "lat": 34.7384679,
      "lng": 135.4331403,
      "staffName": "担当1"
    },
    {
      "name": "尼崎D.C. グランスクエアサウス（1611号室・1713号室）",
      "addr": "兵庫県尼崎市潮江5-2-1",
      "lat": 34.734072,
      "lng": 135.4278109,
      "staffName": "担当1"
    },
    {
      "name": "尼崎ＤＣグランスクエアノース（1136号室・1830号室）",
      "addr": "兵庫県尼崎市潮江5-2-1",
      "lat": 34.734072,
      "lng": 135.4278109,
      "staffName": "担当1"
    },
    {
      "name": "尼崎D.C.パークイースト",
      "addr": "兵庫県尼崎市潮江5-2-15",
      "lat": 34.734547,
      "lng": 135.4274305,
      "staffName": "担当1"
    },
    {
      "name": "尼崎D.C.パークフロント(902号室)",
      "addr": "兵庫県尼崎市潮江5-4-19",
      "lat": 34.7351568,
      "lng": 135.4268229,
      "staffName": "担当1"
    },
    {
      "name": "ザ・パークハウス尼崎潮江(902号室)",
      "addr": "兵庫県尼崎市潮江5-4-22",
      "lat": 34.735391,
      "lng": 135.4263133,
      "staffName": "担当1"
    },
    {
      "name": "尼崎D.C.グランスクエアウエスト（519号室・722号室）",
      "addr": "兵庫県尼崎市潮江5-2-1",
      "lat": 34.734072,
      "lng": 135.4278109,
      "staffName": "担当1"
    }
  ]
}