{
  "mode": "admin",
  "pref": "27",
  "d": "1:205008001,205058001,205058003;2:205008002,205008003,2050620;3:2050090,2050730,205079002",
  "pw": "9af15b336e6a9619928537df30b2e6a2376569fcf9d7e773eccede65606529a0",
  "kinshi": [
    {
      "name": "メロディーハイム江坂エセンシア",
      "addr": "大阪府吹田市江坂町1-13-14",
      "lat": 34.760780864,
      "lng": 135.498236065,
      "staffName": "担当1"
    },
    {
      "name": "藤和江坂ホームズベネフィール",
      "addr": "大阪府吹田市江坂町1-14-4",
      "lat": 34.761670125,
      "lng": 135.49914116900004,
      "staffName": "担当1"
    },
    {
      "name": "アンビエント江坂",
      "addr": "大阪府吹田市江坂町1-14-8",
      "lat": 34.761316336,
      "lng": 135.499102899,
      "staffName": "担当1"
    },
    {
      "name": "フォレステージュ江坂公園",
      "addr": "大阪府吹田市江坂町1-22-35",
      "lat": 34.759025809,
      "lng": 135.498256921,
      "staffName": "担当1"
    },
    {
      "name": "メゾン江坂(503号室)",
      "addr": "大阪府吹田市江坂町1-16-10",
      "lat": 34.76036585,
      "lng": 135.500076597,
      "staffName": "担当1"
    },
    {
      "name": "ルネ江坂",
      "addr": "大阪府吹田市江坂町1-12-47",
      "lat": 34.763550822,
      "lng": 135.497732205,
      "staffName": "担当1"
    },
    {
      "name": "セレニテ江坂壱番館",
      "addr": "大阪府吹田市江坂町1-13-46",
      "lat": 34.761372491,
      "lng": 135.4975664,
      "staffName": "担当1"
    },
    {
      "name": "エルプレイス江坂3",
      "addr": "大阪府吹田市江坂町１-13-44",
      "lat": 34.761199138,
      "lng": 135.497553748,
      "staffName": "担当1"
    },
    {
      "name": "ユカミハイツ江坂",
      "addr": "大阪府吹田市江坂町2-1-26",
      "lat": 34.76201415,
      "lng": 135.497002133,
      "staffName": "担当2"
    },
    {
      "name": "ペルル江坂ブランアージュ",
      "addr": "大阪府吹田市江坂町2-1-35",
      "lat": 34.762200193,
      "lng": 135.496300665,
      "staffName": "担当2"
    },
    {
      "name": "コスモ江坂パークフォルム",
      "addr": "大阪府吹田市江坂町2-25-7",
      "lat": 34.763799606,
      "lng": 135.489875963,
      "staffName": "担当2"
    },
    {
      "name": "大建コーポ江坂",
      "addr": "大阪府吹田市江坂町2-3-30",
      "lat": 34.763532323,
      "lng": 135.495423429,
      "staffName": "担当2"
    },
    {
      "name": "江坂ハイデンス",
      "addr": "大阪府吹田市江坂町2-1-8",
      "lat": 34.763181,
      "lng": 135.493011,
      "staffName": "担当2"
    },
    {
      "name": "杉原様(戸建)",
      "addr": "大阪府吹田市江坂町2-3-13",
      "lat": 34.763043809,
      "lng": 135.49534359000003,
      "staffName": "担当2"
    },
    {
      "name": "丁目20-20ライオンズマンション第7江坂",
      "addr": "大阪府吹田市江坂町2",
      "lat": 34.763181,
      "lng": 135.493011,
      "staffName": "担当2"
    },
    {
      "name": "パレ緑地公園",
      "addr": "大阪府吹田市江坂町5-15-8",
      "lat": 34.76926,
      "lng": 135.498366,
      "staffName": "未割当"
    },
    {
      "name": "プラウド江坂 　全棟",
      "addr": "大阪府吹田市江の木町11-38",
      "lat": 34.755911898,
      "lng": 135.491828719,
      "staffName": "担当3"
    },
    {
      "name": "ハイツ冨士",
      "addr": "大阪府吹田市江の木町1-23",
      "lat": 34.756416874,
      "lng": 135.495946963,
      "staffName": "担当3"
    },
    {
      "name": "江坂・江の木公園スカイハイツ",
      "addr": "大阪府吹田市江の木町12-5",
      "lat": 34.755975944,
      "lng": 135.493897654,
      "staffName": "担当3"
    },
    {
      "name": "パルムハウス江坂",
      "addr": "大阪府吹田市江の木町17-20",
      "lat": 34.754684905,
      "lng": 135.49602902,
      "staffName": "担当3"
    },
    {
      "name": "リバフォールアネックス",
      "addr": "大阪府吹田市江の木町23-11",
      "lat": 34.754399377,
      "lng": 135.491953656,
      "staffName": "担当3"
    },
    {
      "name": "ネバーランド江坂江の木町",
      "addr": "大阪府吹田市江の木町24-9",
      "lat": 34.753567236,
      "lng": 135.4926095,
      "staffName": "担当3"
    },
    {
      "name": "江坂グランドハイツ北",
      "addr": "大阪府吹田市江の木町2-5",
      "lat": 34.757089368,
      "lng": 135.495821813,
      "staffName": "担当3"
    },
    {
      "name": "シティコープ江坂",
      "addr": "大阪府吹田市江の木町17-37",
      "lat": 34.755973826,
      "lng": 135.495892878,
      "staffName": "担当3"
    },
    {
      "name": "ノルデンハイム江坂アドバンス",
      "addr": "大阪府吹田市江の木町17-10",
      "lat": 34.75516603,
      "lng": 135.496544251,
      "staffName": "担当3"
    },
    {
      "name": "豊友マンション",
      "addr": "大阪府吹田市江の木町2-20",
      "lat": 34.75618565,
      "lng": 135.49527591,
      "staffName": "担当3"
    },
    {
      "name": "プラウド吹田垂水の杜",
      "addr": "大阪府吹田市垂水町1-11-9",
      "lat": 34.765746025,
      "lng": 135.505805849,
      "staffName": "担当1"
    },
    {
      "name": "戸建（長野様）",
      "addr": "大阪府吹田市垂水町1-32-4",
      "lat": 34.765544715,
      "lng": 135.503083972,
      "staffName": "担当1"
    },
    {
      "name": "戸建（松本様/ムネ様）",
      "addr": "大阪府吹田市垂水町1-53-21",
      "lat": 34.765282586,
      "lng": 135.500098977,
      "staffName": "担当1"
    },
    {
      "name": "ディオレ江坂",
      "addr": "大阪府吹田市垂水町1-57-20",
      "lat": 34.766258526,
      "lng": 135.497935847,
      "staffName": "担当1"
    },
    {
      "name": "アーバネックス江坂垂水町ファインフラッツ",
      "addr": "大阪府吹田市垂水町1-56-21",
      "lat": 34.765383861,
      "lng": 135.497788076,
      "staffName": "担当1"
    },
    {
      "name": "戸建（寺澤様）",
      "addr": "大阪府吹田市垂水町1-28-41",
      "lat": 34.764328225,
      "lng": 135.504193173,
      "staffName": "担当1"
    },
    {
      "name": "ステイツグラン吹田垂水町",
      "addr": "大阪府吹田市垂水町2-25-1",
      "lat": 34.760845,
      "lng": 135.506765,
      "staffName": "未割当"
    },
    {
      "name": "チサンマンション第2江坂",
      "addr": "大阪府吹田市垂水町3-10-2",
      "lat": 34.762342984,
      "lng": 135.503895473,
      "staffName": "担当1"
    },
    {
      "name": "戸建（門川様）",
      "addr": "大阪府吹田市垂水町3-1-27",
      "lat": 34.763859929,
      "lng": 135.504429397,
      "staffName": "担当1"
    },
    {
      "name": "コート江坂垂水町",
      "addr": "大阪府吹田市垂水町3-19-34",
      "lat": 34.761382558,
      "lng": 135.502879403,
      "staffName": "担当1"
    },
    {
      "name": "ノルデンハイム江坂Ⅱ",
      "addr": "大阪府吹田市垂水町3-23-29",
      "lat": 34.760828157,
      "lng": 135.501273884,
      "staffName": "担当1"
    },
    {
      "name": "チサンマンション第3江坂",
      "addr": "大阪府吹田市垂水町3-25-6",
      "lat": 34.759744764,
      "lng": 135.503656313,
      "staffName": "担当1"
    },
    {
      "name": "チサンマンション第5江坂",
      "addr": "大阪府吹田市垂水町3-29-2",
      "lat": 34.759537536,
      "lng": 135.501979579,
      "staffName": "担当1"
    },
    {
      "name": "ユニライフ江坂",
      "addr": "大阪府吹田市垂水町3-33-34",
      "lat": 34.758595372,
      "lng": 135.502987348,
      "staffName": "担当1"
    },
    {
      "name": "チサンマンション第1江坂",
      "addr": "大阪府吹田市垂水町3-9-10",
      "lat": 34.762073636,
      "lng": 135.501561514,
      "staffName": "担当1"
    },
    {
      "name": "山本ビル",
      "addr": "大阪府吹田市垂水町3-4-27",
      "lat": 34.764088595,
      "lng": 135.501287119,
      "staffName": "担当1"
    },
    {
      "name": "ノルデンハイム江坂垂水町",
      "addr": "大阪府吹田市垂水町3-17-16",
      "lat": 34.761479611,
      "lng": 135.5010012,
      "staffName": "担当1"
    },
    {
      "name": "サンマンション江坂",
      "addr": "大阪府吹田市豊津町1-14",
      "lat": 34.760687571000005,
      "lng": 135.496965302,
      "staffName": "担当2"
    },
    {
      "name": "セレッソコート江坂アネックス",
      "addr": "大阪府吹田市豊津町60-3",
      "lat": 34.757651534,
      "lng": 135.488297397,
      "staffName": "担当2"
    },
    {
      "name": "戸建（横井様）",
      "addr": "大阪府吹田市豊津町62-17",
      "lat": 34.758609455,
      "lng": 135.487931246,
      "staffName": "担当2"
    },
    {
      "name": "榎原様宅",
      "addr": "大阪府吹田市豊津町25-2",
      "lat": 34.760175727,
      "lng": 135.492100461,
      "staffName": "担当2"
    },
    {
      "name": "アパートメンツ江坂（旧：パークアクシス江坂豊津町）",
      "addr": "大阪府吹田市豊津町16-10",
      "lat": 34.757691622,
      "lng": 135.493510633,
      "staffName": "担当2"
    },
    {
      "name": "エバーランド・江坂藏人",
      "addr": "大阪府吹田市豊津町24-13",
      "lat": 34.760001973,
      "lng": 135.492163992,
      "staffName": "担当2"
    },
    {
      "name": "ドミトリー江坂（ドーミー江坂豊津かも）",
      "addr": "大阪府吹田市豊津町35-30",
      "lat": 34.761881331,
      "lng": 135.490275786,
      "staffName": "担当2"
    },
    {
      "name": "ＧＳハイム第一江坂",
      "addr": "大阪府吹田市広芝町11-5",
      "lat": 34.755602029,
      "lng": 135.497841974,
      "staffName": "担当3"
    },
    {
      "name": "パレス江坂",
      "addr": "大阪府吹田市広芝町14-22",
      "lat": 34.755675314,
      "lng": 135.501082222,
      "staffName": "担当3"
    },
    {
      "name": "スカーレット江坂",
      "addr": "大阪府吹田市広芝町18-25",
      "lat": 34.754500563,
      "lng": 135.497262376,
      "staffName": "担当3"
    },
    {
      "name": "ノルデンハイム江坂",
      "addr": "大阪府吹田市広芝町4-18",
      "lat": 34.757036624,
      "lng": 135.499138859,
      "staffName": "担当3"
    },
    {
      "name": "ペルル江坂",
      "addr": "大阪府吹田市広芝町4-5",
      "lat": 34.757008407,
      "lng": 135.50047411,
      "staffName": "担当3"
    },
    {
      "name": "バーゼル江坂",
      "addr": "大阪府吹田市広芝町6-39",
      "lat": 34.756806198,
      "lng": 135.501906843,
      "staffName": "担当3"
    },
    {
      "name": "グレイスフル江坂（東栄物産ビル17）",
      "addr": "大阪府吹田市広芝町9-27",
      "lat": 34.756625602,
      "lng": 135.498077812,
      "staffName": "担当3"
    },
    {
      "name": "コニーハイツ",
      "addr": "大阪府吹田市広芝町12-1",
      "lat": 34.755946289,
      "lng": 135.498690026,
      "staffName": "担当3"
    },
    {
      "name": "グランアッシュ江坂",
      "addr": "大阪府吹田市広芝町13-35",
      "lat": 34.755842403,
      "lng": 135.499952315,
      "staffName": "担当3"
    },
    {
      "name": "ノルデンハイム江坂3",
      "addr": "大阪府吹田市広芝町3-24",
      "lat": 34.757397264,
      "lng": 135.500614895,
      "staffName": "担当3"
    },
    {
      "name": "ノルデンハイム江坂アネックス",
      "addr": "大阪府吹田市広芝町4-27",
      "lat": 34.757425774,
      "lng": 135.499323078,
      "staffName": "担当3"
    },
    {
      "name": "グランシス江坂",
      "addr": "大阪府吹田市広芝町18-31",
      "lat": 34.754469023,
      "lng": 135.497911308,
      "staffName": "担当3"
    },
    {
      "name": "ノルデンタワー江坂プレミアム",
      "addr": "大阪府吹田市広芝町11-8",
      "lat": 34.755339755,
      "lng": 135.497822498,
      "staffName": "担当3"
    },
    {
      "name": "(戸建)",
      "addr": "大阪府吹田市円山町15-34",
      "lat": 34.767986217,
      "lng": 135.504260135,
      "staffName": "未割当"
    },
    {
      "name": "田中様宅",
      "addr": "大阪府吹田市円山町17-23",
      "lat": 34.768700653,
      "lng": 135.505496276,
      "staffName": "未割当"
    },
    {
      "name": "府公社豊津団地1号棟",
      "addr": "大阪府吹田市円山町12-35-11",
      "lat": 34.768852,
      "lng": 135.504437,
      "staffName": "未割当"
    },
    {
      "name": "戸建",
      "addr": "大阪府吹田市円山町15-4",
      "lat": 34.767319769,
      "lng": 135.505110801,
      "staffName": "未割当"
    },
    {
      "name": "第3丸福マンション",
      "addr": "大阪府吹田市南金田2-15-8",
      "lat": 34.756808332,
      "lng": 135.505091284,
      "staffName": "担当3"
    },
    {
      "name": "エスリード江坂",
      "addr": "大阪府吹田市芳野町5-58",
      "lat": 34.757477028,
      "lng": 135.489207843,
      "staffName": "未割当"
    },
    {
      "name": "メゾン芳野",
      "addr": "大阪府吹田市芳野町5-15",
      "lat": 34.756319023,
      "lng": 135.490380431,
      "staffName": "未割当"
    }
  ]
}