{
  "mode": "staff",
  "staffName": "担当4",
  "pref": "28",
  "d": "202116001,202116002,202116003",
  "kinshi": [
    {
      "name": "ローレルコート立花町(605号室 渡悦子様)",
      "addr": "兵庫県尼崎市立花町1-25-25",
      "lat": 34.7375942,
      "lng": 135.4051667,
      "staffName": "担当4"
    },
    {
      "name": "朝日プラザ立花(304号室 入江藤子様)",
      "addr": "兵庫県尼崎市立花町2-22-10",
      "lat": 34.7408479,
      "lng": 135.4043514,
      "staffName": "担当4"
    },
    {
      "name": "井上様(戸建)",
      "addr": "兵庫県尼崎市立花町2-15-17",
      "lat": 34.7411094,
      "lng": 135.4033726,
      "staffName": "担当4"
    },
    {
      "name": "ディアコート立花",
      "addr": "兵庫県尼崎市立花町3-22-15",
      "lat": 34.7438096,
      "lng": 135.4022782,
      "staffName": "担当4"
    },
    {
      "name": "前橋様(戸建)",
      "addr": "兵庫県尼崎市立花町3-15-31",
      "lat": 34.7438718,
      "lng": 135.3997293,
      "staffName": "担当4"
    }
  ]
}