{
  "mode": "admin",
  "pref": "28",
  "d": "6:214502001,214502003,214502004,214504101,214504102,214505001,214505002,214602101,214602102;7:214504203,214602103,214602104,214602205,214602106,214602107,214602108,214602109,2146031,2146032,214504103,214602203,214602207,214602105;8:2141110,214406002,2144090,214410001,2146010,2141121",
  "pw": "9af15b336e6a9619928537df30b2e6a2376569fcf9d7e773eccede65606529a0",
  "kinshi": [
    {
      "name": "ハイネスクラウズ宝塚清荒神",
      "addr": "清荒神1-2-9",
      "lat": 34.8107248,
      "lng": 135.3512274,
      "staffName": "未割当"
    },
    {
      "name": "リーフアベニュー宝塚売布",
      "addr": "売布3-15-31",
      "lat": 34.8167934,
      "lng": 135.3581758,
      "staffName": "未割当"
    },
    {
      "name": "宝塚ガーデンヴィレッジ",
      "addr": "宝塚市売布四丁目3-30",
      "lat": 34.8181846,
      "lng": 135.3624558,
      "staffName": "未判定"
    },
    {
      "name": "宝塚ロジュマン",
      "addr": "売布東の町11-10",
      "lat": 34.8172055,
      "lng": 135.3642662,
      "staffName": "担当8"
    },
    {
      "name": "リバーサイド中山寺203号室",
      "addr": "中山寺1-18-5",
      "lat": 34.8215831,
      "lng": 135.3678023,
      "staffName": "担当8"
    },
    {
      "name": "ライオンズ宝塚売布A～C棟全部",
      "addr": "中山荘園1-37",
      "lat": 34.8203343,
      "lng": 135.3640011,
      "staffName": "未割当"
    },
    {
      "name": "沈西様宅",
      "addr": "中筋山手2-5-27",
      "lat": 34.8239349,
      "lng": 135.3733607,
      "staffName": "未割当"
    },
    {
      "name": "セレッソコート宝塚グラシオ",
      "addr": "宝塚市長尾町17-6",
      "lat": 34.8150462,
      "lng": 135.3825686,
      "staffName": "担当7"
    },
    {
      "name": "メゾン宝塚山本",
      "addr": "宝塚市山本南3-12-1",
      "lat": 34.8187138,
      "lng": 135.3930947,
      "staffName": "担当3"
    },
    {
      "name": "ツインコート宝塚山本",
      "addr": "口谷西1-5-2",
      "lat": 34.8171806,
      "lng": 135.3933911,
      "staffName": "担当3"
    }
  ]
}