{
  "mode": "admin",
  "pref": "27",
  "d": "1:141057001,141057002,141057003,141057004,141017001,141017002,141018001,141018002,141018003,141018004,141018005,141059001,141059002,141060001,141060002,141060003,141060004,141011001,141011002,141011003,141012001,141012002,141012003,141012004,141012005,141012006,141029001,141029002,141029003,141030001,141030002,141030003,141030004,141030005,141030006,141020001,141020002,141020003,141021001,141021002,141021003,141021004;2:141113001,141113002,141113003,141114001,141114002,141114003,141114004,141087001,141087002,141087003,141087004,141088001,141088002,141088003,141088004,141090001,141090002,141090003,141090004,141091001,141091002,141091003,141091004,141147001,141147002,141147003,141147004,141150001,141150002,141150003,141150004,141151001,141151002,141148001,141148002,141148004,141083001,141083002,141083003,141083004,141084001,141084002,141084003,141084004,141119001,141119002,141119003,141119004,141120001,141120002,141120003,141120004;3:141045001,141045002,141149001,141149002,141037001,141037002,141115001,141115002,1411410,1410930,141026001,141026002,1410500,141122001,141122002,141122003,141154001,141154002,141154003,141154005,141154006,141014001,141014002,141014004,141014005,141014006,141125001,141125002,141125003,141125004,1410700,1411570",
  "pw": "9af15b336e6a9619928537df30b2e6a2376569fcf9d7e773eccede65606529a0",
  "kinshi": [
    {
      "name": "ボナール海山",
      "addr": "大阪府堺市堺区海山町1-20",
      "lat": 34.5892098,
      "lng": 135.4777127,
      "staffName": "未割当"
    },
    {
      "name": "ベイプリンセスオーサカ",
      "addr": "大阪府堺市堺区海山町1-20-2",
      "lat": 34.5893872,
      "lng": 135.4774676,
      "staffName": "未割当"
    },
    {
      "name": "東急ドエルアルス堺フェニックス",
      "addr": "大阪府堺市堺区海山町1-7-2",
      "lat": 34.5886744,
      "lng": 135.4771687,
      "staffName": "未割当"
    },
    {
      "name": "アリスト堺ガーデンプレイス",
      "addr": "大阪府堺市堺区今池町6-5-33",
      "lat": 34.5849788,
      "lng": 135.4957018,
      "staffName": "未割当"
    },
    {
      "name": "中野様宅（戸建）",
      "addr": "大阪府堺市堺区北三国ヶ丘町6-3-21",
      "lat": 34.5757033,
      "lng": 135.494118,
      "staffName": "未割当"
    },
    {
      "name": "丁3-31ファミールグリーン",
      "addr": "大阪府堺市堺区榎元町1",
      "lat": 34.5718022,
      "lng": 135.4860148,
      "staffName": "未割当"
    },
    {
      "name": "丁1-17宿院ピア",
      "addr": "大阪府堺市堺区寺地町東2",
      "lat": 34.572763,
      "lng": 135.470851,
      "staffName": "担当2"
    },
    {
      "name": "丁1-30フェリスヴィラ",
      "addr": "大阪府堺市堺区寺地町東3",
      "lat": 34.5723344,
      "lng": 135.4717342,
      "staffName": "担当2"
    },
    {
      "name": "丁1-8堺ＰＳＧビル",
      "addr": "大阪府堺市堺区少林寺町西1",
      "lat": 34.5732142,
      "lng": 135.4682015,
      "staffName": "担当2"
    },
    {
      "name": "丁2-6プレナス御陵前",
      "addr": "大阪府堺市堺区南旅篭町西1",
      "lat": 34.5712182,
      "lng": 135.4665825,
      "staffName": "担当2"
    },
    {
      "name": "丁1-30センチュリーハイツ堺",
      "addr": "大阪府堺市堺区南旅篭町東1",
      "lat": 34.5705829,
      "lng": 135.4673184,
      "staffName": "担当2"
    },
    {
      "name": "丁1-27アネックス1号館",
      "addr": "大阪府堺市堺区南庄町2",
      "lat": 34.5815318,
      "lng": 135.4866038,
      "staffName": "未割当"
    },
    {
      "name": "パークシティ堺東タワーズブライト（1211号室）",
      "addr": "大阪府堺市堺区北花田口町1-2-15",
      "lat": 34.5781344,
      "lng": 135.4821933,
      "staffName": "担当3"
    },
    {
      "name": "丁1-30フェニックスレジデンス堺東",
      "addr": "大阪府堺市堺区北花田口町2",
      "lat": 34.5777465,
      "lng": 135.4835117,
      "staffName": "担当3"
    },
    {
      "name": "堺東ヴューモ（902号室 山本様）",
      "addr": "大阪府堺市堺区三国ヶ丘御幸通57-2",
      "lat": 34.576114,
      "lng": 135.4857594,
      "staffName": "未判定"
    },
    {
      "name": "プラウドタワー堺東",
      "addr": "大阪府堺市堺区三国ヶ丘御幸通154",
      "lat": 34.5739707,
      "lng": 135.4838889,
      "staffName": "未判定"
    },
    {
      "name": "関谷興業(ヤ)",
      "addr": "大阪府堺市堺区翁橋町1-4-10",
      "lat": 34.5738746,
      "lng": 135.4792557,
      "staffName": "担当3"
    },
    {
      "name": "メゾンドール堺",
      "addr": "大阪府堺市堺区神南辺町2-76-1",
      "lat": 34.5853211,
      "lng": 135.4716145,
      "staffName": "未割当"
    },
    {
      "name": "ターミナル朝日プラザ堺",
      "addr": "大阪府堺市堺区戎島町2-30",
      "lat": 34.581044,
      "lng": 135.4720916,
      "staffName": "未割当"
    },
    {
      "name": "堺駅前アーバンコンフォート",
      "addr": "大阪府堺市堺区戎島町3-22-4",
      "lat": 34.5838896,
      "lng": 135.4715979,
      "staffName": "未割当"
    },
    {
      "name": "丁45-1ポルタス・センタービル",
      "addr": "大阪府堺市堺区戎島町4",
      "lat": 34.5832839,
      "lng": 135.4692319,
      "staffName": "未割当"
    },
    {
      "name": "ファミール堺パート2",
      "addr": "大阪府堺市堺区大浜中町1-2-20",
      "lat": 34.5757271,
      "lng": 135.4635751,
      "staffName": "未割当"
    },
    {
      "name": "はり源ビル",
      "addr": "大阪府堺市堺区竜神橋町1-1-5",
      "lat": 34.5789496,
      "lng": 135.4676312,
      "staffName": "未割当"
    },
    {
      "name": "丁-1-9フォンティーヌ堺(705号室)",
      "addr": "大阪府堺市堺区竜神橋町2",
      "lat": 34.580476,
      "lng": 135.4658466,
      "staffName": "未割当"
    },
    {
      "name": "丁5-5パレス住吉橋",
      "addr": "大阪府堺市堺区住吉橋町1",
      "lat": 34.5784501,
      "lng": 135.4665825,
      "staffName": "未割当"
    },
    {
      "name": "丁6-15堺ハイツ",
      "addr": "大阪府堺市堺区住吉橋町1",
      "lat": 34.5784501,
      "lng": 135.4665825,
      "staffName": "未割当"
    },
    {
      "name": "プライムス堺駅前フェニックス通り",
      "addr": "大阪府堺市堺区住吉橋町2-1-15",
      "lat": 34.5796026,
      "lng": 135.465497,
      "staffName": "未割当"
    },
    {
      "name": "プレジール堺",
      "addr": "大阪府堺市堺区楠町3-1-23",
      "lat": 34.565909,
      "lng": 135.4588341,
      "staffName": "未割当"
    },
    {
      "name": "サンライズ浜寺",
      "addr": "大阪府堺市堺区柏木町2-4-7",
      "lat": 34.56243140000001,
      "lng": 135.4586792,
      "staffName": "未割当"
    },
    {
      "name": "ラインズマンション堺",
      "addr": "大阪府堺市堺区材木町西2-2",
      "lat": 34.5839571,
      "lng": 135.4764448,
      "staffName": "未割当"
    },
    {
      "name": "ライオンズマンション堺",
      "addr": "大阪府堺市堺区材木町西2-2-7",
      "lat": 34.5835793,
      "lng": 135.4760768,
      "staffName": "未割当"
    },
    {
      "name": "カサディ・ザビエル",
      "addr": "大阪府堺市堺区車之町西2-2-22",
      "lat": 34.5832236,
      "lng": 135.4760216,
      "staffName": "未割当"
    },
    {
      "name": "メゾンオリビア",
      "addr": "大阪府堺市堺区櫛屋町東2-2-6",
      "lat": 34.5800651,
      "lng": 135.4775963,
      "staffName": "担当1"
    },
    {
      "name": "メゾンドール堺・大小路",
      "addr": "大阪府堺市堺区熊野町西1-2-22",
      "lat": 34.5798009,
      "lng": 135.473933,
      "staffName": "担当1"
    },
    {
      "name": "ウィング・ヴァリィ1番館",
      "addr": "大阪府堺市堺区熊野町東2-1-18",
      "lat": 34.5787143,
      "lng": 135.4759987,
      "staffName": "担当1"
    },
    {
      "name": "ウィング・ヴァリィ2番館",
      "addr": "大阪府堺市堺区甲斐町西3-4-12",
      "lat": 34.5797088,
      "lng": 135.4697631,
      "staffName": "担当1"
    },
    {
      "name": "戸建(ヤ)",
      "addr": "大阪府堺市堺区甲斐町東4-1-19",
      "lat": 34.5750844,
      "lng": 135.4756895,
      "staffName": "担当1"
    },
    {
      "name": "ハイツカトレア",
      "addr": "大阪府堺市堺区大町東1-1-3",
      "lat": 34.5762053,
      "lng": 135.4722126,
      "staffName": "担当1"
    },
    {
      "name": "戸建(ヤ)",
      "addr": "大阪府堺市堺区中之町西1-2-13",
      "lat": 34.5747219,
      "lng": 135.4692503,
      "staffName": "担当2"
    },
    {
      "name": "丁2-16戸建（マエダ様）",
      "addr": "大阪府堺市堺区南安井町5",
      "lat": 34.5701531,
      "lng": 135.4790948,
      "staffName": "担当3"
    },
    {
      "name": "マエダ様(戸建)",
      "addr": "大阪府堺市堺区南安井町５-2-16",
      "lat": 34.5698172,
      "lng": 135.4792801,
      "staffName": "担当3"
    },
    {
      "name": "丁1-5堺東グリーンハイツA棟・B棟",
      "addr": "大阪府堺市堺区賑町4",
      "lat": 34.5680142,
      "lng": 135.4777698,
      "staffName": "担当3"
    }
  ]
}