{
  "mode": "staff",
  "staffName": "担当4",
  "pref": "27",
  "d": "2040100,204015001,204015002,2040180,2040190,2040200,2040210,2040220,2040230",
  "kinshi": [
    {
      "name": "第二永和荘",
      "addr": "大阪府池田市城南1-7-15",
      "lat": 34.820753,
      "lng": 135.431143,
      "staffName": "担当4"
    },
    {
      "name": "フェリスイケダ　101号室",
      "addr": "大阪府池田市大和町4-9",
      "lat": 34.8235613,
      "lng": 135.4269537,
      "staffName": "担当4"
    },
    {
      "name": "ベルエル栄町(202号室)",
      "addr": "大阪府池田市栄町6-15",
      "lat": 34.8235537,
      "lng": 135.4254138,
      "staffName": "担当4"
    },
    {
      "name": "ハイツ江田　201号室",
      "addr": "大阪府池田市西本町6-6",
      "lat": 34.8264945,
      "lng": 135.4233078,
      "staffName": "担当4"
    },
    {
      "name": "グランアッシュ池田室町レジデンス",
      "addr": "大阪府池田市室町1-13",
      "lat": 34.8204094,
      "lng": 135.4241567,
      "staffName": "担当4"
    },
    {
      "name": "堀口様（堀口整形外科）",
      "addr": "大阪府池田市室町2-1",
      "lat": 34.8222611,
      "lng": 135.4243392,
      "staffName": "担当4"
    }
  ]
}