{
  "mode": "admin",
  "pref": "27",
  "d": "6:2151130,215582002,215582003,218109004,218109005,218109006,2290060;7:215582001,2290050,229009001,2290100,2290140,2290150,2290290;8:2151480,2151490,2152040,215230001,215230002,2153150,2155810,215318001,229026001,229026002,229026003",
  "pw": "9af15b336e6a9619928537df30b2e6a2376569fcf9d7e773eccede65606529a0",
  "kinshi": [
    {
      "name": "Mプラザ寝屋川弐番館",
      "addr": "楠根北町2-18",
      "lat": 34.7556633,
      "lng": 135.6284916,
      "staffName": "担当8"
    },
    {
      "name": "メゾン護良",
      "addr": "寝屋川市讃良西町-6-10",
      "lat": 34.746491,
      "lng": 135.6227093,
      "staffName": "未判定"
    },
    {
      "name": "戸建",
      "addr": "寝屋川市堀溝1-26-9",
      "lat": 34.7426198,
      "lng": 135.6260438,
      "staffName": "担当7"
    },
    {
      "name": "一戸建住宅",
      "addr": "大東市北条2-7-5",
      "lat": 34.728168,
      "lng": 135.641793,
      "staffName": "担当2"
    },
    {
      "name": "ハイツ",
      "addr": "大東市錦町7-6",
      "lat": 34.7292885,
      "lng": 135.6397866,
      "staffName": "担当5"
    },
    {
      "name": "一戸建て",
      "addr": "大東市津の辺町21-36",
      "lat": 34.7241731,
      "lng": 135.6356648,
      "staffName": "担当5"
    },
    {
      "name": "あかい としこ(一戸建)",
      "addr": "大東市津の辺町21-36",
      "lat": 34.7241731,
      "lng": 135.6356648,
      "staffName": "担当5"
    },
    {
      "name": "該当物件すべて",
      "addr": "大東市南津の辺町3-21",
      "lat": 34.7233393,
      "lng": 135.6356966,
      "staffName": "担当4"
    },
    {
      "name": "当該番地全て",
      "addr": "大東市南津の辺町3-21",
      "lat": 34.7233393,
      "lng": 135.6356966,
      "staffName": "担当4"
    },
    {
      "name": "エステートなかがわ",
      "addr": "大東市野崎4-3-6",
      "lat": 34.7168683,
      "lng": 135.6413842,
      "staffName": "担当1"
    },
    {
      "name": "戸建",
      "addr": "大東市幸町12-23",
      "lat": 34.7081516,
      "lng": 135.6269517,
      "staffName": "担当1"
    },
    {
      "name": "戸建",
      "addr": "大東市大東町5-39",
      "lat": 34.7144106,
      "lng": 135.6211076,
      "staffName": "担当3"
    },
    {
      "name": "ｸﾞﾛｰﾊﾞﾙﾏﾝｼｮﾝ",
      "addr": "四條畷市雁屋南町7-4-",
      "lat": 34.7336991,
      "lng": 135.6343398,
      "staffName": "未判定"
    },
    {
      "name": "YMカリヤ",
      "addr": "雁屋南町5-34",
      "lat": 34.7336148,
      "lng": 135.6347477,
      "staffName": "担当7"
    },
    {
      "name": "レオパレスＨＡＲＵ？",
      "addr": "四條畷市岡山1-21-15",
      "lat": 34.7443944,
      "lng": 135.6419043,
      "staffName": "未割当"
    }
  ]
}