{
  "mode": "admin",
  "pref": "27",
  "d": "1:2230030,2230090,2230100,2230130,2230240,2230250,2230340,2230400,2230460,2230500,2230550;2:2230260,2230280,2230290,2230420,2230520,2230610,2230620;3:2090010,2090020,2090030,2090120,209013002,2090200,209021002,2090240,2090250,2090300,2090340,209035001,209035002,2090360,209043002,2090520,209053001,209053002,2090570,209058002,2090630,209064001,209064002,2090650,2090720,2090730,209075001,2090810",
  "pw": "9af15b336e6a9619928537df30b2e6a2376569fcf9d7e773eccede65606529a0",
  "kinshi": [
    {
      "name": "トップス祝ハイツ（303号室）",
      "addr": "大阪府守口市祝町10-10",
      "lat": 34.73280722,
      "lng": 135.559911665,
      "staffName": "担当3"
    },
    {
      "name": "市営住宅大宮団地",
      "addr": "大阪府守口市大宮通3-9-11",
      "lat": 34.728181256,
      "lng": 135.576781115,
      "staffName": "未割当"
    },
    {
      "name": "宇治様（戸建）",
      "addr": "大阪府守口市大久保町1-18-6",
      "lat": 34.75042268,
      "lng": 135.593715263,
      "staffName": "未割当"
    },
    {
      "name": "ＧＲＥＥＮＧＡＢＬＥＳ２",
      "addr": "大阪府守口市春日町13-38",
      "lat": 34.731149992,
      "lng": 135.560716961,
      "staffName": "未割当"
    },
    {
      "name": "パレス守口",
      "addr": "大阪府守口市河原町11-22",
      "lat": 34.734319491,
      "lng": 135.565668853,
      "staffName": "未割当"
    },
    {
      "name": "グランソフィア守口",
      "addr": "大阪府守口市梶町1-20-1",
      "lat": 34.748698371,
      "lng": 135.584441782,
      "staffName": "未割当"
    },
    {
      "name": "十河様（戸建）",
      "addr": "大阪府守口市梶町1-54-4",
      "lat": 34.751712276,
      "lng": 135.585932145,
      "staffName": "未割当"
    },
    {
      "name": "アビタ梶町",
      "addr": "大阪府守口市梶町1-6-14",
      "lat": 34.747863798,
      "lng": 135.58468624,
      "staffName": "未割当"
    },
    {
      "name": "ジョイライフ",
      "addr": "大阪府守口市菊水通1-16-6",
      "lat": 34.73238318,
      "lng": 135.578329735,
      "staffName": "未割当"
    },
    {
      "name": "戸建",
      "addr": "大阪府守口市菊水通2-17-12",
      "lat": 34.73012646,
      "lng": 135.578657222,
      "staffName": "未割当"
    },
    {
      "name": "戸建",
      "addr": "大阪府守口市菊水通2-17-5",
      "lat": 34.730026254,
      "lng": 135.579215114,
      "staffName": "未割当"
    },
    {
      "name": "ライオンズ守口ブランズシティ(103号室)",
      "addr": "大阪府守口市京阪本通2-11-6",
      "lat": 34.735705467,
      "lng": 135.55930897,
      "staffName": "担当3"
    },
    {
      "name": "松永様(戸建)",
      "addr": "大阪府守口市西郷通3-3-8",
      "lat": 34.729012279,
      "lng": 135.57217508,
      "staffName": "未割当"
    },
    {
      "name": "エステスクエア・アクロス大日（1201号室イシズ様）",
      "addr": "大阪府守口市佐太東町1-40-3",
      "lat": 34.755675077,
      "lng": 135.587572541,
      "staffName": "未割当"
    },
    {
      "name": "キングマンション守口",
      "addr": "大阪府守口市佐太中町2-7-27",
      "lat": 34.75585646,
      "lng": 135.58441681,
      "staffName": "未割当"
    },
    {
      "name": "守口スカイハイツ",
      "addr": "大阪府守口市佐太中町4-19-13",
      "lat": 34.75811502,
      "lng": 135.58845306,
      "staffName": "未割当"
    },
    {
      "name": "守口佐太中住宅【全棟】",
      "addr": "大阪府守口市佐太中町4-3",
      "lat": 34.757779,
      "lng": 135.586869,
      "staffName": "未割当"
    },
    {
      "name": "シティハウス守口桃町緑道公園",
      "addr": "大阪府守口市外島町3-15",
      "lat": 34.741368182,
      "lng": 135.56181653700003,
      "staffName": "担当3"
    },
    {
      "name": "土井様",
      "addr": "大阪府守口市高瀬町2-11-3",
      "lat": 34.727804719,
      "lng": 135.564577463,
      "staffName": "未割当"
    },
    {
      "name": "グリーンゲーブルス",
      "addr": "大阪府守口市土居町6-23",
      "lat": 34.731909102,
      "lng": 135.559484506,
      "staffName": "未割当"
    },
    {
      "name": "石井ビルメゾンDOI(204号室)",
      "addr": "大阪府守口市土居町2-19",
      "lat": 34.731736623,
      "lng": 135.559001628,
      "staffName": "未割当"
    },
    {
      "name": "中村マンション",
      "addr": "大阪府守口市東光町1-27-14",
      "lat": 34.730582608,
      "lng": 135.570142221,
      "staffName": "未割当"
    },
    {
      "name": "シティハイツ古川橋",
      "addr": "大阪府守口市藤田町1-2-27",
      "lat": 34.745712237,
      "lng": 135.594834397,
      "staffName": "未割当"
    },
    {
      "name": "ベルフォーレ藤田(102号室)",
      "addr": "大阪府守口市藤田町3-30-4",
      "lat": 34.746958401,
      "lng": 135.598520706,
      "staffName": "未割当"
    },
    {
      "name": "サンクタス守口大和田レジデンス",
      "addr": "大阪府守口市藤田町5-22-10",
      "lat": 34.746507591,
      "lng": 135.601274603,
      "staffName": "未割当"
    },
    {
      "name": "アーバンエース守口パル",
      "addr": "大阪府守口市日吉町2-6-6",
      "lat": 34.736080213,
      "lng": 135.562816757,
      "staffName": "担当3"
    },
    {
      "name": "モンセーヌ守口",
      "addr": "大阪府守口市八雲中町3-13-36",
      "lat": 34.747458745,
      "lng": 135.573055707,
      "staffName": "未割当"
    },
    {
      "name": "府営守口八雲北住宅4号棟（303号室）",
      "addr": "大阪府守口市八雲北町2-9-4",
      "lat": 34.751785393000006,
      "lng": 135.563810572,
      "staffName": "未割当"
    },
    {
      "name": "アーバンハイツＦ",
      "addr": "大阪府守口市八雲東町1-7-11",
      "lat": 34.741996831,
      "lng": 135.569237337,
      "staffName": "未割当"
    },
    {
      "name": "ファミール守口",
      "addr": "大阪府守口市八雲東町2-82-15",
      "lat": 34.748368275,
      "lng": 135.577156068,
      "staffName": "未割当"
    },
    {
      "name": "メロディーハイム大日",
      "addr": "大阪府守口市八雲東町2-82-21",
      "lat": 34.748736991,
      "lng": 135.577630517,
      "staffName": "未割当"
    },
    {
      "name": "メゾンあすか",
      "addr": "大阪府門真市石原町5-16",
      "lat": 34.74353742,
      "lng": 135.591986814,
      "staffName": "担当1"
    },
    {
      "name": "エステムコート門真ディアーナ",
      "addr": "大阪府門真市大池町14-37",
      "lat": 34.736034919,
      "lng": 135.600318027,
      "staffName": "未割当"
    },
    {
      "name": "ネオコーポ門真",
      "addr": "大阪府門真市栄町1-6",
      "lat": 34.737323668,
      "lng": 135.581901792,
      "staffName": "担当2"
    },
    {
      "name": "プロパレス門真セウアズール",
      "addr": "大阪府門真市栄町29-13",
      "lat": 34.733894864,
      "lng": 135.581576419,
      "staffName": "担当2"
    },
    {
      "name": "門真新橋団地",
      "addr": "大阪府門真市新橋町3",
      "lat": 34.736205,
      "lng": 135.584038,
      "staffName": "担当2"
    },
    {
      "name": "エクセレント清萌",
      "addr": "大阪府門真市新橋町6-10",
      "lat": 34.736823602,
      "lng": 135.584442334,
      "staffName": "担当2"
    },
    {
      "name": "エスリード門真駅前",
      "addr": "大阪府門真市新橋町2-3",
      "lat": 34.737780419,
      "lng": 135.585906537,
      "staffName": "担当2"
    },
    {
      "name": "ネオコーポ門真東",
      "addr": "大阪府門真市常称寺町16-1",
      "lat": 34.742442126,
      "lng": 135.598486439,
      "staffName": "未割当"
    },
    {
      "name": "府営門真住宅Ｂ－42棟",
      "addr": "大阪府門真市千石西町10-42",
      "lat": 34.724515727,
      "lng": 135.605132972,
      "staffName": "未割当"
    },
    {
      "name": "戸建",
      "addr": "大阪府門真市堂山町12-20",
      "lat": 34.742268861,
      "lng": 135.578182533,
      "staffName": "未割当"
    },
    {
      "name": "戸建A（門真市野里町32-16-1）",
      "addr": "大阪府門真市野里町32-16-1",
      "lat": 34.741358,
      "lng": 135.603196,
      "staffName": "未割当"
    },
    {
      "name": "戸建B（門真市野里町32-16-2）",
      "addr": "大阪府門真市野里町32-16-2",
      "lat": 34.741358,
      "lng": 135.603196,
      "staffName": "未割当"
    },
    {
      "name": "戸建C（門真市野里町32-16-3）",
      "addr": "大阪府門真市野里町32-16-3",
      "lat": 34.741358,
      "lng": 135.603196,
      "staffName": "未割当"
    },
    {
      "name": "戸建D（門真市野里町32-16-4）",
      "addr": "大阪府門真市野里町32-16-4",
      "lat": 34.741358,
      "lng": 135.603196,
      "staffName": "未割当"
    },
    {
      "name": "戸建E（門真市野里町32-15）",
      "addr": "大阪府門真市野里町32-15",
      "lat": 34.740159446,
      "lng": 135.601310215,
      "staffName": "未割当"
    },
    {
      "name": "朝日プラザ門真",
      "addr": "大阪府門真市野里町9-24",
      "lat": 34.741588018,
      "lng": 135.602223562,
      "staffName": "未割当"
    },
    {
      "name": "ラウレア門真",
      "addr": "大阪府門真市野里町40-12",
      "lat": 34.738887233,
      "lng": 135.603972361,
      "staffName": "未割当"
    },
    {
      "name": "ネバーランド門真デュオパークス",
      "addr": "大阪府門真市深田町1-23",
      "lat": 34.733258707000005,
      "lng": 135.588199907,
      "staffName": "未割当"
    },
    {
      "name": "ロジュマンドゥソラーナ古川橋",
      "addr": "大阪府門真市御堂町25-2",
      "lat": 34.745764886,
      "lng": 135.595230902,
      "staffName": "担当1"
    },
    {
      "name": "ゾンネンブルーメ",
      "addr": "大阪府門真市南野口町34-15",
      "lat": 34.733464395,
      "lng": 135.606751965,
      "staffName": "未割当"
    },
    {
      "name": "グランヴィア",
      "addr": "大阪府門真市宮野町14-33",
      "lat": 34.744470556,
      "lng": 135.605356111,
      "staffName": "未割当"
    },
    {
      "name": "ラ・ルミエール",
      "addr": "大阪府門真市宮野町14-34",
      "lat": 34.744416073,
      "lng": 135.605272528,
      "staffName": "未割当"
    },
    {
      "name": "ウイング21",
      "addr": "大阪府門真市宮野町16-11",
      "lat": 34.746439235,
      "lng": 135.60702112,
      "staffName": "未割当"
    },
    {
      "name": "【16番地全域禁止】",
      "addr": "大阪府門真市宮野町16",
      "lat": 34.744973,
      "lng": 135.604986,
      "staffName": "未割当"
    },
    {
      "name": "【17番地全域禁止】",
      "addr": "大阪府門真市宮野町17",
      "lat": 34.744973,
      "lng": 135.604986,
      "staffName": "未割当"
    },
    {
      "name": "【18番地全域禁止】",
      "addr": "大阪府門真市宮野町18",
      "lat": 34.744973,
      "lng": 135.604986,
      "staffName": "未割当"
    },
    {
      "name": "【19番地全域禁止】",
      "addr": "大阪府門真市宮野町19",
      "lat": 34.744973,
      "lng": 135.604986,
      "staffName": "未割当"
    },
    {
      "name": "中野マンション",
      "addr": "大阪府門真市向島町6-2",
      "lat": 34.746224241,
      "lng": 135.582830464,
      "staffName": "未割当"
    },
    {
      "name": "第２中野マンション",
      "addr": "大阪府門真市向島町6-6",
      "lat": 34.745922481,
      "lng": 135.582608077,
      "staffName": "未割当"
    },
    {
      "name": "グランドムール門真",
      "addr": "大阪府門真市柳町5-1",
      "lat": 34.737338699,
      "lng": 135.586059726,
      "staffName": "担当2"
    }
  ]
}