{
  "mode": "admin",
  "pref": "28",
  "d": "1:202018003,202018004,202018005,202018006,202018007,202018008,202018009,202019003,202019004,202019005,202019006,202019007,202019008,202019009,202020001,202020002,202020003,202020004,202020005,202020006,202020007,202020008,202020009,202021001,202021002,202021003,202021004,202021005,202021006,202021007,202021008,202021009,202022001,202022002,202022003,202022004,202022005,202022006,2020260,2020320,202035007,202035008,202037001,202037002,202037003,202038001,202038002,202038003,202039001,202039002,202039003,202040001,202040002,202040003;2:202050004,202050005,202051003,202051004,202051005;3:2020012,202018002,2020520,202057002,202058002",
  "pw": "9af15b336e6a9619928537df30b2e6a2376569fcf9d7e773eccede65606529a0",
  "kinshi": [
    {
      "name": "エンゼルハイム",
      "addr": "兵庫県尼崎市北大物町8-15",
      "lat": 34.7216253,
      "lng": 135.4254509,
      "staffName": "担当3"
    },
    {
      "name": "藤和ハイタウン尼崎",
      "addr": "兵庫県尼崎市昭和通6-203-1",
      "lat": 34.7222459,
      "lng": 135.4107227,
      "staffName": "担当1"
    },
    {
      "name": "ディオフェルティ出屋敷",
      "addr": "兵庫県尼崎市神田中通7-237",
      "lat": 34.7215645,
      "lng": 135.4066171,
      "staffName": "担当1"
    },
    {
      "name": "アイビー神田",
      "addr": "兵庫県尼崎市神田中通9-282",
      "lat": 34.7222771,
      "lng": 135.4039585,
      "staffName": "担当1"
    },
    {
      "name": "さきタワー・サンクタス尼崎駅前",
      "addr": "兵庫県尼崎市御園町27-3",
      "lat": 34.7185836,
      "lng": 135.4150029,
      "staffName": "未割当"
    },
    {
      "name": "ローレルタワー尼崎",
      "addr": "兵庫県尼崎市御園町54",
      "lat": 34.717816,
      "lng": 135.4164745,
      "staffName": "未割当"
    },
    {
      "name": "クラシェス尼崎",
      "addr": "兵庫県尼崎市建家町112",
      "lat": 34.7195513,
      "lng": 135.412292,
      "staffName": "担当1"
    },
    {
      "name": "尼崎アーバンコンフォート",
      "addr": "兵庫県尼崎市玄番北之町26-1",
      "lat": 34.7187171,
      "lng": 135.4081134,
      "staffName": "担当1"
    },
    {
      "name": "リベル",
      "addr": "兵庫県尼崎市竹谷町2-183",
      "lat": 34.7190528,
      "lng": 135.4038286,
      "staffName": "担当1"
    },
    {
      "name": "郡山宅（戸建）",
      "addr": "兵庫県尼崎市西難波町3-21-9",
      "lat": 34.7248073,
      "lng": 135.4051961,
      "staffName": "未割当"
    },
    {
      "name": "立花グリーンハイツ1号棟(911号棟)",
      "addr": "兵庫県尼崎市東難波町1-1-1",
      "lat": 34.7350287,
      "lng": 135.4125603,
      "staffName": "未割当"
    },
    {
      "name": "レスタージュ橘通り緑彩館(711号室　ﾔﾏｼﾀ様)",
      "addr": "兵庫県尼崎市東難波町2-16-1",
      "lat": 34.7322818,
      "lng": 135.4103999,
      "staffName": "未割当"
    },
    {
      "name": "県営東難波高層住宅",
      "addr": "兵庫県尼崎市東難波町3-25",
      "lat": 34.72888340000001,
      "lng": 135.4146553,
      "staffName": "担当2"
    },
    {
      "name": "リヨンドハイツ(302号室)",
      "addr": "兵庫県尼崎市東難波町3-21-7",
      "lat": 34.7272958,
      "lng": 135.4144001,
      "staffName": "担当2"
    },
    {
      "name": "古川宅（戸建）",
      "addr": "兵庫県尼崎市東難波町4-9-20",
      "lat": 34.7250833,
      "lng": 135.4135947,
      "staffName": "担当2"
    },
    {
      "name": "ラポールⅡ東難波",
      "addr": "兵庫県尼崎市東難波町5-13-7",
      "lat": 34.7235234,
      "lng": 135.4146147,
      "staffName": "担当2"
    },
    {
      "name": "サンコート東難波",
      "addr": "兵庫県尼崎市東難波町5-3-8",
      "lat": 34.7228675,
      "lng": 135.4111197,
      "staffName": "担当2"
    },
    {
      "name": "サンマンションアトレ尼崎",
      "addr": "兵庫県尼崎市東難波町5-7-14",
      "lat": 34.7225235,
      "lng": 135.4119885,
      "staffName": "担当2"
    },
    {
      "name": "フラワーメゾンⅡ",
      "addr": "兵庫県尼崎市東難波町5-30-10",
      "lat": 34.7214025,
      "lng": 135.41754,
      "staffName": "担当2"
    },
    {
      "name": "Ｓ・ＲＥＳＩＤＥＮＣＥ東難波",
      "addr": "兵庫県尼崎市東難波町5-30-5",
      "lat": 34.7214765,
      "lng": 135.4169855,
      "staffName": "担当2"
    },
    {
      "name": "ルネセントラルタワー",
      "addr": "兵庫県尼崎市西大物町12-55",
      "lat": 34.718696,
      "lng": 135.4197498,
      "staffName": "担当3"
    },
    {
      "name": "ロイヤルシャトー尼崎スプリングコート",
      "addr": "兵庫県尼崎市西大物町12-58",
      "lat": 34.7188921,
      "lng": 135.4207917,
      "staffName": "担当3"
    },
    {
      "name": "プロスパⅠ塚口東",
      "addr": "兵庫県尼崎市久々知西町2-1-17",
      "lat": 34.7392822,
      "lng": 135.423853,
      "staffName": "未割当"
    },
    {
      "name": "松田様(戸建)",
      "addr": "兵庫県尼崎市久々知3-3-7",
      "lat": 34.7420881,
      "lng": 135.4313189,
      "staffName": "未割当"
    },
    {
      "name": "福原様（戸建）",
      "addr": "兵庫県尼崎市次屋1-15-36",
      "lat": 34.7372915,
      "lng": 135.4400156,
      "staffName": "未割当"
    },
    {
      "name": "プレサンスロジェ尼崎",
      "addr": "兵庫県尼崎市下坂部3-11-1",
      "lat": 34.7421362,
      "lng": 135.437426,
      "staffName": "未割当"
    },
    {
      "name": "南塚口スカイハイツ",
      "addr": "兵庫県尼崎市名神町1-3-30",
      "lat": 34.7411193,
      "lng": 135.4124526,
      "staffName": "未割当"
    },
    {
      "name": "川端様(戸建)",
      "addr": "兵庫県尼崎市名神町2-9-14",
      "lat": 34.7413918,
      "lng": 135.4185766,
      "staffName": "未割当"
    },
    {
      "name": "アーチ名神",
      "addr": "兵庫県尼崎市名神町2-19-34",
      "lat": 34.7429376,
      "lng": 135.418632,
      "staffName": "未割当"
    },
    {
      "name": "アミング潮江イースト１４－１号棟",
      "addr": "兵庫県尼崎市潮江1-14-1",
      "lat": 34.7341651,
      "lng": 135.4341653,
      "staffName": "未割当"
    },
    {
      "name": "アミング潮江イースト１５－１号棟",
      "addr": "兵庫県尼崎市潮江1-15-1",
      "lat": 34.7345304,
      "lng": 135.4338877,
      "staffName": "未割当"
    },
    {
      "name": "アミング潮江イースト１５－２号棟",
      "addr": "兵庫県尼崎市潮江1-15-2",
      "lat": 34.7345793,
      "lng": 135.4343797,
      "staffName": "未割当"
    },
    {
      "name": "アミング潮江イースト１５－３号棟",
      "addr": "兵庫県尼崎市潮江1-15-3",
      "lat": 34.7343947,
      "lng": 135.4348751,
      "staffName": "未割当"
    },
    {
      "name": "アミング潮江ウエスト２番館",
      "addr": "兵庫県尼崎市潮江1-16-1",
      "lat": 34.7346416,
      "lng": 135.432955,
      "staffName": "未割当"
    },
    {
      "name": "アミング潮江イースト２０－１号棟",
      "addr": "兵庫県尼崎市潮江1-20-1",
      "lat": 34.7349338,
      "lng": 135.4347648,
      "staffName": "未割当"
    },
    {
      "name": "アミング潮江イースト２１－１号棟",
      "addr": "兵庫県尼崎市潮江1-21-1",
      "lat": 34.735082,
      "lng": 135.4338823,
      "staffName": "未割当"
    },
    {
      "name": "アミング潮江ウエスト１番館",
      "addr": "兵庫県尼崎市潮江1-22-1",
      "lat": 34.7350846,
      "lng": 135.4323841,
      "staffName": "未割当"
    },
    {
      "name": "ローレルスクエア尼崎ルネ・ガーデンテラス",
      "addr": "兵庫県尼崎市潮江1-3-12",
      "lat": 34.7332802,
      "lng": 135.4292315,
      "staffName": "未割当"
    },
    {
      "name": "ローレルコート・クレヴィア尼崎駅前",
      "addr": "兵庫県尼崎市潮江1-2-1",
      "lat": 34.7325474,
      "lng": 135.4311943,
      "staffName": "未割当"
    },
    {
      "name": "ルネマスターズタワー",
      "addr": "兵庫県尼崎市潮江1-5-1",
      "lat": 34.7321855,
      "lng": 135.4331289,
      "staffName": "未割当"
    },
    {
      "name": "ラヴェール尼崎",
      "addr": "兵庫県尼崎市潮江1-11-1",
      "lat": 34.7332097,
      "lng": 135.4337352,
      "staffName": "未割当"
    },
    {
      "name": "辻本様(戸建)",
      "addr": "兵庫県尼崎市潮江1-31-22",
      "lat": 34.7355919,
      "lng": 135.4306067,
      "staffName": "未割当"
    },
    {
      "name": "UR都市機構ルゼフィール潮江1号棟【貼紙の見落とし注意！！】",
      "addr": "兵庫県尼崎市潮江1-6-1",
      "lat": 34.7325436,
      "lng": 135.434115,
      "staffName": "未割当"
    },
    {
      "name": "アミング潮江プラスト (1003号室)",
      "addr": "兵庫県尼崎市潮江1-4-2",
      "lat": 34.7336063,
      "lng": 135.4323379,
      "staffName": "未割当"
    },
    {
      "name": "筒井様（戸建）",
      "addr": "兵庫県尼崎市潮江2-26-5-1",
      "lat": 34.7368834,
      "lng": 135.4338334,
      "staffName": "未割当"
    },
    {
      "name": "添田様（戸建）",
      "addr": "兵庫県尼崎市潮江2-26-1",
      "lat": 34.7368044,
      "lng": 135.4340458,
      "staffName": "未割当"
    },
    {
      "name": "速水様（戸建）",
      "addr": "兵庫県尼崎市潮江3-13-17",
      "lat": 34.7384679,
      "lng": 135.4331403,
      "staffName": "未割当"
    },
    {
      "name": "尼崎D.C. グランスクエアサウス（1611号室・1713号室）",
      "addr": "兵庫県尼崎市潮江5-2-1",
      "lat": 34.734072,
      "lng": 135.4278109,
      "staffName": "未割当"
    },
    {
      "name": "尼崎ＤＣグランスクエアノース（1136号室・1830号室）",
      "addr": "兵庫県尼崎市潮江5-2-1",
      "lat": 34.734072,
      "lng": 135.4278109,
      "staffName": "未割当"
    },
    {
      "name": "尼崎D.C.パークイースト",
      "addr": "兵庫県尼崎市潮江5-2-15",
      "lat": 34.734547,
      "lng": 135.4274305,
      "staffName": "未割当"
    },
    {
      "name": "尼崎D.C.パークフロント(902号室)",
      "addr": "兵庫県尼崎市潮江5-4-19",
      "lat": 34.7351568,
      "lng": 135.4268229,
      "staffName": "未割当"
    },
    {
      "name": "ザ・パークハウス尼崎潮江(902号室)",
      "addr": "兵庫県尼崎市潮江5-4-22",
      "lat": 34.735391,
      "lng": 135.4263133,
      "staffName": "未割当"
    },
    {
      "name": "尼崎D.C.グランスクエアウエスト（519号室・722号室）",
      "addr": "兵庫県尼崎市潮江5-2-1",
      "lat": 34.734072,
      "lng": 135.4278109,
      "staffName": "未割当"
    },
    {
      "name": "市営常光寺北団地2号棟",
      "addr": "兵庫県尼崎市常光寺1-3-2",
      "lat": 34.7293476,
      "lng": 135.4393476,
      "staffName": "未割当"
    },
    {
      "name": "コスモシティ尼崎",
      "addr": "兵庫県尼崎市長洲東通2-9-18",
      "lat": 34.724866,
      "lng": 135.4354564,
      "staffName": "未割当"
    },
    {
      "name": "藤和シティホームズ尼崎駅前",
      "addr": "兵庫県尼崎市長洲西通1-2-3",
      "lat": 34.7314122,
      "lng": 135.4304363,
      "staffName": "未割当"
    },
    {
      "name": "グランコート尼崎西パークサイドアベニュー",
      "addr": "兵庫県尼崎市崇徳院3-2",
      "lat": 34.721723,
      "lng": 135.4010211,
      "staffName": "未割当"
    },
    {
      "name": "喜代田様(戸建)",
      "addr": "兵庫県尼崎市崇徳院3-18-11",
      "lat": 34.7222343,
      "lng": 135.4001545,
      "staffName": "未割当"
    },
    {
      "name": "サンローゼン浜田",
      "addr": "兵庫県尼崎市浜田町3-20",
      "lat": 34.7291932,
      "lng": 135.4000933,
      "staffName": "未割当"
    },
    {
      "name": "(203号室サクライ様)",
      "addr": "兵庫県尼崎市浜田町3-43",
      "lat": 34.729118,
      "lng": 135.3989662,
      "staffName": "未割当"
    },
    {
      "name": "ザ・ガーデネスクシティ全棟(コムズ館・アクア館・ブライト館)",
      "addr": "兵庫県尼崎市蓬川町302-14",
      "lat": 34.720556,
      "lng": 135.3997025,
      "staffName": "未割当"
    },
    {
      "name": "県営尼崎大庄高層住宅1号棟～3号棟",
      "addr": "兵庫県尼崎市蓬川町331-1",
      "lat": 34.7189566,
      "lng": 135.3988202,
      "staffName": "未割当"
    },
    {
      "name": "タケモト様(戸建)",
      "addr": "兵庫県尼崎市菜切山町6-3",
      "lat": 34.7236035,
      "lng": 135.3970727,
      "staffName": "未割当"
    },
    {
      "name": "エスト立花",
      "addr": "兵庫県尼崎市西立花町2-31-41",
      "lat": 34.7370528,
      "lng": 135.3927186,
      "staffName": "未割当"
    },
    {
      "name": "コスモ・ザ・パークス尼崎立花",
      "addr": "兵庫県尼崎市大庄北1-14-60",
      "lat": 34.7331273,
      "lng": 135.3942813,
      "staffName": "未割当"
    },
    {
      "name": "塚口ネオコーポラス",
      "addr": "兵庫県尼崎市塚口町1-22-1",
      "lat": 34.7545709,
      "lng": 135.4123564,
      "staffName": "未割当"
    },
    {
      "name": "ベル塚口",
      "addr": "兵庫県尼崎市塚口町1-32-5",
      "lat": 34.7561696,
      "lng": 135.4133836,
      "staffName": "未割当"
    },
    {
      "name": "モンテベルデ塚口",
      "addr": "兵庫県尼崎市塚口町1-15-18",
      "lat": 34.7548248,
      "lng": 135.4141898,
      "staffName": "未割当"
    },
    {
      "name": "ＬＥＧＡＣＹＭＩＹＡＫＥ",
      "addr": "兵庫県尼崎市塚口町2-32-3",
      "lat": 34.7584639,
      "lng": 135.4130938,
      "staffName": "未割当"
    },
    {
      "name": "クレオ塚口町",
      "addr": "兵庫県尼崎市塚口町5-10-4",
      "lat": 34.7533052,
      "lng": 135.405293,
      "staffName": "未割当"
    },
    {
      "name": "マンション鈴木",
      "addr": "兵庫県尼崎市七松町1-9-3",
      "lat": 34.7361589,
      "lng": 135.3992232,
      "staffName": "未割当"
    },
    {
      "name": "フェスタ立花南館ウエスト",
      "addr": "兵庫県尼崎市七松町1-3-1",
      "lat": 34.73738,
      "lng": 135.3988132,
      "staffName": "未割当"
    },
    {
      "name": "ディアス立花",
      "addr": "兵庫県尼崎市七松町2-15-25",
      "lat": 34.7356795,
      "lng": 135.4008671,
      "staffName": "未割当"
    },
    {
      "name": "ジーエスハイム",
      "addr": "兵庫県尼崎市七松町3-3-11",
      "lat": 34.7360854,
      "lng": 135.405626,
      "staffName": "未割当"
    },
    {
      "name": "マンションみやもと",
      "addr": "兵庫県尼崎市七松町3-3-15",
      "lat": 34.735887,
      "lng": 135.4055928,
      "staffName": "未割当"
    },
    {
      "name": "市川様(戸建)",
      "addr": "兵庫県尼崎市七松町3-12-2",
      "lat": 34.7349535,
      "lng": 135.4051555,
      "staffName": "未割当"
    },
    {
      "name": "戸建",
      "addr": "兵庫県尼崎市南七松町2-2-5",
      "lat": 34.73137510000001,
      "lng": 135.4010763,
      "staffName": "未割当"
    },
    {
      "name": "フェリシオ塚口",
      "addr": "兵庫県尼崎市南塚口町2-7-1",
      "lat": 34.7521522,
      "lng": 135.4171915,
      "staffName": "未割当"
    },
    {
      "name": "Hissa・Curar（カワイハイツ）",
      "addr": "兵庫県尼崎市南塚口町2-14-21",
      "lat": 34.751164,
      "lng": 135.4178806,
      "staffName": "未割当"
    },
    {
      "name": "プラウド阪急塚口駅前",
      "addr": "兵庫県尼崎市南塚口町2-1-3",
      "lat": 34.7521541,
      "lng": 135.4153169,
      "staffName": "未割当"
    },
    {
      "name": "サンロイス",
      "addr": "兵庫県尼崎市南塚口町3-5-6",
      "lat": 34.7523035,
      "lng": 135.4215413,
      "staffName": "未判定"
    },
    {
      "name": "キューブ南塚口Ⅲ",
      "addr": "兵庫県尼崎市南塚口町3-6-24",
      "lat": 34.752105,
      "lng": 135.4202157,
      "staffName": "未判定"
    },
    {
      "name": "ヴィラージュ塚口",
      "addr": "兵庫県尼崎市南塚口町3-7-20",
      "lat": 34.7520485,
      "lng": 135.4193638,
      "staffName": "未判定"
    },
    {
      "name": "小中様(戸建)",
      "addr": "兵庫県尼崎市南塚口町3-25-41",
      "lat": 34.74865339999999,
      "lng": 135.4212245,
      "staffName": "未判定"
    },
    {
      "name": "池内様(戸建)",
      "addr": "兵庫県尼崎市南塚口町5-4-22",
      "lat": 34.7473661,
      "lng": 135.416711,
      "staffName": "未割当"
    },
    {
      "name": "川崎様（戸建）",
      "addr": "兵庫県尼崎市南塚口町5-9-10",
      "lat": 34.7463707,
      "lng": 135.4172267,
      "staffName": "未割当"
    },
    {
      "name": "グローバル園田学園前",
      "addr": "兵庫県尼崎市南塚口町8-8-25",
      "lat": 34.7492438,
      "lng": 135.4110914,
      "staffName": "未割当"
    },
    {
      "name": "ル・モンド",
      "addr": "兵庫県尼崎市南塚口町8-12-9",
      "lat": 34.7493766,
      "lng": 135.4096385,
      "staffName": "未割当"
    },
    {
      "name": "ファミール塚口サザンレジデンス",
      "addr": "兵庫県尼崎市南塚口町8-51-18",
      "lat": 34.75164609999999,
      "lng": 135.4055329,
      "staffName": "未割当"
    },
    {
      "name": "ブラン・アビタシオン",
      "addr": "兵庫県尼崎市南塚口町8-36-18",
      "lat": 34.7518809,
      "lng": 135.4073959,
      "staffName": "未割当"
    },
    {
      "name": "ローレルコート立花町(605号室 渡悦子様)",
      "addr": "兵庫県尼崎市立花町1-25-25",
      "lat": 34.7375942,
      "lng": 135.4051667,
      "staffName": "未割当"
    },
    {
      "name": "朝日プラザ立花(304号室 入江藤子様)",
      "addr": "兵庫県尼崎市立花町2-22-10",
      "lat": 34.7408479,
      "lng": 135.4043514,
      "staffName": "未割当"
    },
    {
      "name": "井上様(戸建)",
      "addr": "兵庫県尼崎市立花町2-15-17",
      "lat": 34.7411094,
      "lng": 135.4033726,
      "staffName": "未割当"
    },
    {
      "name": "ディアコート立花",
      "addr": "兵庫県尼崎市立花町3-22-15",
      "lat": 34.7438096,
      "lng": 135.4022782,
      "staffName": "未割当"
    },
    {
      "name": "前橋様(戸建)",
      "addr": "兵庫県尼崎市立花町3-15-31",
      "lat": 34.7438718,
      "lng": 135.3997293,
      "staffName": "未割当"
    },
    {
      "name": "金井　啓子様",
      "addr": "兵庫県尼崎市立花町4-10-5",
      "lat": 34.7409636,
      "lng": 135.3977201,
      "staffName": "未割当"
    },
    {
      "name": "山本様(戸建)",
      "addr": "兵庫県尼崎市立花町4-15-18",
      "lat": 34.7392997,
      "lng": 135.396833,
      "staffName": "未割当"
    },
    {
      "name": "井上様(戸建て)",
      "addr": "兵庫県尼崎市三反田町1-3-21",
      "lat": 34.7387859,
      "lng": 135.4064964,
      "staffName": "未割当"
    },
    {
      "name": "東山様(戸建)",
      "addr": "兵庫県尼崎市三反田町2-7-23",
      "lat": 34.7384286,
      "lng": 135.4104097,
      "staffName": "未割当"
    },
    {
      "name": "井上様(戸建て)",
      "addr": "兵庫県尼崎市三反田町2-4-20",
      "lat": 34.7371041,
      "lng": 135.4086134,
      "staffName": "未割当"
    },
    {
      "name": "井上様(戸建て)",
      "addr": "兵庫県尼崎市三反田町2-15-2",
      "lat": 34.7397135,
      "lng": 135.4072874,
      "staffName": "未割当"
    },
    {
      "name": "パレス南塚口１号棟",
      "addr": "兵庫県尼崎市尾浜町1-32-1",
      "lat": 34.7390728,
      "lng": 135.413729,
      "staffName": "未割当"
    },
    {
      "name": "橋本様(戸建)",
      "addr": "兵庫県尼崎市尾浜町1-27-19",
      "lat": 34.73819840000001,
      "lng": 135.4139777,
      "staffName": "未割当"
    },
    {
      "name": "南塚ロ橋本セントラル貮番館",
      "addr": "兵庫県尼崎市尾浜町1-27-18",
      "lat": 34.7382282,
      "lng": 135.4141204,
      "staffName": "未割当"
    },
    {
      "name": "パレス南塚口２号棟",
      "addr": "兵庫県尼崎市尾浜町1-32-2",
      "lat": 34.7396666,
      "lng": 135.4136794,
      "staffName": "未割当"
    },
    {
      "name": "大伴様(戸建)",
      "addr": "兵庫県尼崎市尾浜町2-34-11",
      "lat": 34.73930590000001,
      "lng": 135.4171316,
      "staffName": "未割当"
    },
    {
      "name": "大藤様（戸建）",
      "addr": "兵庫県尼崎市尾浜町2-5-13",
      "lat": 34.7358273,
      "lng": 135.418088,
      "staffName": "未割当"
    },
    {
      "name": "佐野様(戸建)",
      "addr": "兵庫県尼崎市尾浜町3-5-7",
      "lat": 34.7350724,
      "lng": 135.4209396,
      "staffName": "未割当"
    },
    {
      "name": "Ａ・Ｕハイツ",
      "addr": "兵庫県尼崎市水堂町2-23-23",
      "lat": 34.7417376,
      "lng": 135.3922559,
      "staffName": "未割当"
    },
    {
      "name": "竹村（戸建）",
      "addr": "兵庫県尼崎市水堂町2-32-7",
      "lat": 34.7429535,
      "lng": 135.3888604,
      "staffName": "未割当"
    },
    {
      "name": "ライオンズマンション立花（507号室）",
      "addr": "兵庫県尼崎市水堂町2-12-10",
      "lat": 34.7403971,
      "lng": 135.3913583,
      "staffName": "未割当"
    },
    {
      "name": "ヘリテージ武庫之荘",
      "addr": "兵庫県尼崎市水堂町3-6-20",
      "lat": 34.74390959999999,
      "lng": 135.3962495,
      "staffName": "未割当"
    },
    {
      "name": "ＬＯＣＵＳⅡ",
      "addr": "兵庫県尼崎市南武庫之荘1-20-19",
      "lat": 34.7511256,
      "lng": 135.3917002,
      "staffName": "未割当"
    },
    {
      "name": "フォルザ武庫之荘(301号室ミムラ様)",
      "addr": "兵庫県尼崎市南武庫之荘1-29-37",
      "lat": 34.7507788,
      "lng": 135.3898615,
      "staffName": "未割当"
    },
    {
      "name": "泉・坂巻（戸建）",
      "addr": "兵庫県尼崎市南武庫之荘1-17-7",
      "lat": 34.7496011,
      "lng": 135.3923903,
      "staffName": "未割当"
    },
    {
      "name": "ゆめざくら武庫之荘(老人ホーム)",
      "addr": "兵庫県尼崎市南武庫之荘1-29-13",
      "lat": 34.7505409,
      "lng": 135.3893944,
      "staffName": "未割当"
    },
    {
      "name": "ソレアード武庫之荘(老人ホーム)",
      "addr": "兵庫県尼崎市南武庫之荘1-29-27",
      "lat": 34.7506607,
      "lng": 135.3891027,
      "staffName": "未割当"
    },
    {
      "name": "井上様",
      "addr": "兵庫県尼崎市南武庫之荘2-23-5",
      "lat": 34.7473659,
      "lng": 135.3982978,
      "staffName": "未割当"
    },
    {
      "name": "南武庫之荘ガーデンハウス",
      "addr": "兵庫県尼崎市南武庫之荘2-7",
      "lat": 34.751666,
      "lng": 135.3984858,
      "staffName": "未割当"
    },
    {
      "name": "ＬＵＣＩＡＮＮＡＷＥＳＴ(201号室ウエダ様)",
      "addr": "兵庫県尼崎市南武庫之荘2-13-24",
      "lat": 34.7495332,
      "lng": 135.396884,
      "staffName": "未割当"
    },
    {
      "name": "プレア南武(302号室マツモト様)",
      "addr": "兵庫県尼崎市南武庫之荘2-9-22",
      "lat": 34.7509502,
      "lng": 135.3977626,
      "staffName": "未割当"
    },
    {
      "name": "ライオンズガーデン武庫之荘イアス",
      "addr": "兵庫県尼崎市南武庫之荘2-24-32",
      "lat": 34.7467428,
      "lng": 135.3982386,
      "staffName": "未割当"
    },
    {
      "name": "こけっと武庫之荘Ⅱ（408号室　木下様）",
      "addr": "兵庫県尼崎市南武庫之荘2-25-1",
      "lat": 34.7471288,
      "lng": 135.3975559,
      "staffName": "未割当"
    },
    {
      "name": "髙市様(戸建)",
      "addr": "兵庫県尼崎市南武庫之荘3-29-1",
      "lat": 34.7460638,
      "lng": 135.3926798,
      "staffName": "未割当"
    },
    {
      "name": "髙市様（戸建）",
      "addr": "兵庫県尼崎市南武庫之荘3-29-15",
      "lat": 34.7458148,
      "lng": 135.3917232,
      "staffName": "未割当"
    },
    {
      "name": "南武庫之荘アーバンライフ (101号室 里内様)",
      "addr": "兵庫県尼崎市南武庫之荘3-12-1",
      "lat": 34.7470734,
      "lng": 135.3955547,
      "staffName": "未割当"
    },
    {
      "name": "エクリア南武庫之荘",
      "addr": "兵庫県尼崎市南武庫之荘3-17-24",
      "lat": 34.7455083,
      "lng": 135.3946255,
      "staffName": "未割当"
    },
    {
      "name": "メゾン・ド・エル",
      "addr": "兵庫県尼崎市南武庫之荘3-32-25",
      "lat": 34.7468977,
      "lng": 135.3922101,
      "staffName": "未割当"
    },
    {
      "name": "高木宅（戸建）",
      "addr": "兵庫県尼崎市南武庫之荘3-32-5",
      "lat": 34.7467241,
      "lng": 135.3927182,
      "staffName": "未割当"
    },
    {
      "name": "ファムール武庫之荘",
      "addr": "兵庫県尼崎市南武庫之荘4-21-6",
      "lat": 34.7468625,
      "lng": 135.3866249,
      "staffName": "未割当"
    },
    {
      "name": "(202号室ヒコサカ様)",
      "addr": "兵庫県尼崎市南武庫之荘4-15-11",
      "lat": 34.7465989,
      "lng": 135.3877194,
      "staffName": "未割当"
    },
    {
      "name": "朝子様(戸建)",
      "addr": "兵庫県尼崎市南武庫之荘5-22-10",
      "lat": 34.7477878,
      "lng": 135.3881571,
      "staffName": "未割当"
    },
    {
      "name": "奥田宅（戸建）",
      "addr": "兵庫県尼崎市南武庫之荘5-10-28",
      "lat": 34.74962,
      "lng": 135.3890409,
      "staffName": "未割当"
    },
    {
      "name": "仲本組",
      "addr": "兵庫県尼崎市南武庫之荘5-23-11",
      "lat": 34.7476135,
      "lng": 135.3871969,
      "staffName": "未割当"
    },
    {
      "name": "福田宅（戸建）",
      "addr": "兵庫県尼崎市南武庫之荘5-2-2",
      "lat": 34.748689,
      "lng": 135.3908282,
      "staffName": "未割当"
    },
    {
      "name": "福田宅（戸建）",
      "addr": "兵庫県尼崎市南武庫之荘5-2-3",
      "lat": 34.7485762,
      "lng": 135.3907678,
      "staffName": "未割当"
    },
    {
      "name": "荒井宅（戸建）",
      "addr": "兵庫県尼崎市南武庫之荘5-9-1",
      "lat": 34.7490024,
      "lng": 135.3901727,
      "staffName": "未割当"
    },
    {
      "name": "セントラル第2武庫之荘",
      "addr": "兵庫県尼崎市南武庫之荘5-24-25",
      "lat": 34.7481285,
      "lng": 135.3874248,
      "staffName": "未割当"
    },
    {
      "name": "ＬＵＸＥ武庫之荘(307号室ヤマモト様)",
      "addr": "兵庫県尼崎市武庫之荘本町1-10-20",
      "lat": 34.7591962,
      "lng": 135.3935232,
      "staffName": "未割当"
    },
    {
      "name": "セントラル第７武庫之荘",
      "addr": "兵庫県尼崎市武庫之荘本町1-15-30",
      "lat": 34.75862830000001,
      "lng": 135.3927868,
      "staffName": "未割当"
    },
    {
      "name": "エバー武庫之荘",
      "addr": "兵庫県尼崎市武庫之荘東1-1-8",
      "lat": 34.7522451,
      "lng": 135.3954764,
      "staffName": "未割当"
    },
    {
      "name": "ロイヤルアーク武庫之荘",
      "addr": "兵庫県尼崎市武庫之荘東1-8-1",
      "lat": 34.7532706,
      "lng": 135.3946396,
      "staffName": "未割当"
    },
    {
      "name": "アメニティコート武庫之荘",
      "addr": "兵庫県尼崎市武庫之荘東1-8-6",
      "lat": 34.75378329999999,
      "lng": 135.394637,
      "staffName": "未割当"
    },
    {
      "name": "飯田様(戸建)",
      "addr": "兵庫県尼崎市武庫之荘東2-23-21",
      "lat": 34.7561123,
      "lng": 135.396787,
      "staffName": "未割当"
    },
    {
      "name": "サニーヴィラ(202号室ナカノ様)",
      "addr": "兵庫県尼崎市富松町3-23-48",
      "lat": 34.7595375,
      "lng": 135.3995742,
      "staffName": "未割当"
    },
    {
      "name": "ハイツモリタ",
      "addr": "兵庫県尼崎市塚口本町1-11-5",
      "lat": 34.7546265,
      "lng": 135.4169978,
      "staffName": "未割当"
    },
    {
      "name": "アンセストラル・ベース",
      "addr": "兵庫県尼崎市塚口本町2-25-1",
      "lat": 34.7563373,
      "lng": 135.4190163,
      "staffName": "未割当"
    },
    {
      "name": "ライオンズマンション塚口",
      "addr": "兵庫県尼崎市塚口本町2-30-1",
      "lat": 34.7578703,
      "lng": 135.4181387,
      "staffName": "未割当"
    },
    {
      "name": "アズワンリッシュ（207号室）",
      "addr": "兵庫県尼崎市塚口本町7-12-12",
      "lat": 34.7537928,
      "lng": 135.4219222,
      "staffName": "未割当"
    },
    {
      "name": "シエスタ",
      "addr": "兵庫県尼崎市武庫之荘1-14-11",
      "lat": 34.7537752,
      "lng": 135.3923555,
      "staffName": "未割当"
    },
    {
      "name": "ヒルズ武庫之荘",
      "addr": "兵庫県尼崎市武庫之荘1-25-8",
      "lat": 34.7547671,
      "lng": 135.3910721,
      "staffName": "未割当"
    },
    {
      "name": "メゾン武庫之荘",
      "addr": "兵庫県尼崎市武庫之荘1-25-8",
      "lat": 34.7547671,
      "lng": 135.3910721,
      "staffName": "未割当"
    },
    {
      "name": "セントポリア武庫之荘",
      "addr": "兵庫県尼崎市武庫之荘1-33-1",
      "lat": 34.75422880000001,
      "lng": 135.3928499,
      "staffName": "未割当"
    },
    {
      "name": "プレジール武庫之荘",
      "addr": "兵庫県尼崎市武庫之荘1-10-1",
      "lat": 34.75314600000001,
      "lng": 135.3931638,
      "staffName": "未割当"
    },
    {
      "name": "ビーグラン武庫之荘(301号室トクダ様)",
      "addr": "兵庫県尼崎市武庫之荘1-23-10",
      "lat": 34.7554115,
      "lng": 135.3912481,
      "staffName": "未割当"
    },
    {
      "name": "武庫ビラ",
      "addr": "兵庫県尼崎市武庫之荘1-13-7",
      "lat": 34.7536078,
      "lng": 135.3910013,
      "staffName": "未割当"
    },
    {
      "name": "ディグリア武庫之荘二丁目",
      "addr": "兵庫県尼崎市武庫之荘2-17-9",
      "lat": 34.7524773,
      "lng": 135.3893899,
      "staffName": "未割当"
    },
    {
      "name": "グランノール武庫之荘アーバンライフ",
      "addr": "兵庫県尼崎市武庫之荘2-9-1",
      "lat": 34.7523302,
      "lng": 135.3907487,
      "staffName": "未割当"
    },
    {
      "name": "ライオンズマンション武庫之荘",
      "addr": "兵庫県尼崎市武庫之荘3-18-20",
      "lat": 34.7555121,
      "lng": 135.3860043,
      "staffName": "未割当"
    },
    {
      "name": "上木マンション",
      "addr": "兵庫県尼崎市武庫之荘西2-44-82",
      "lat": 34.7526337,
      "lng": 135.3884195,
      "staffName": "未割当"
    },
    {
      "name": "上木マンションオーナー宅",
      "addr": "兵庫県尼崎市武庫之荘西2-45-10",
      "lat": 34.7524283,
      "lng": 135.3886104,
      "staffName": "未割当"
    },
    {
      "name": "福々邸弐番館(205号室イムラ様)",
      "addr": "兵庫県尼崎市武庫之荘西2-49-16",
      "lat": 34.7509575,
      "lng": 135.3875753,
      "staffName": "未割当"
    },
    {
      "name": "市営口田中団地",
      "addr": "兵庫県尼崎市口田中1-17-1",
      "lat": 34.7552521,
      "lng": 135.4338352,
      "staffName": "未割当"
    },
    {
      "name": "レオパレスカリヨ尼崎",
      "addr": "兵庫県尼崎市口田中1-16-5",
      "lat": 34.7560556,
      "lng": 135.4345507,
      "staffName": "未割当"
    },
    {
      "name": "キューブ東塚口",
      "addr": "兵庫県尼崎市東塚口町1-8-10",
      "lat": 34.7517379,
      "lng": 135.4244003,
      "staffName": "未割当"
    },
    {
      "name": "セルヴァ塚口ウィングマスターズウィング",
      "addr": "兵庫県尼崎市東塚口町1-6-1",
      "lat": 34.7521482,
      "lng": 135.4222283,
      "staffName": "未割当"
    },
    {
      "name": "セルヴァ塚口ウィングセントラルウィング",
      "addr": "兵庫県尼崎市東塚口町1-7-1",
      "lat": 34.7516601,
      "lng": 135.4230809,
      "staffName": "未割当"
    },
    {
      "name": "パレ東塚口１（501号室）",
      "addr": "兵庫県尼崎市東塚口町1-3-20",
      "lat": 34.7529678,
      "lng": 135.4222324,
      "staffName": "未割当"
    },
    {
      "name": "イニシア塚口",
      "addr": "兵庫県尼崎市上坂部1-2",
      "lat": 34.7521993,
      "lng": 135.4288839,
      "staffName": "未割当"
    },
    {
      "name": "プラウドシティ塚口マークフォレスト(プラウドシティ塚口全棟)",
      "addr": "兵庫県尼崎市上坂部1-8-1",
      "lat": 34.7521576,
      "lng": 135.4258731,
      "staffName": "未割当"
    },
    {
      "name": "プラウドシティ塚口マークスカイ(プラウドシティ塚口全棟)",
      "addr": "兵庫県尼崎市上坂部1-8-1",
      "lat": 34.7521576,
      "lng": 135.4258731,
      "staffName": "未割当"
    },
    {
      "name": "プラウドシティ塚口マークフロント(プラウドシティ塚口全棟)",
      "addr": "兵庫県尼崎市上坂部1-1-3",
      "lat": 34.7508234,
      "lng": 135.4261352,
      "staffName": "未割当"
    },
    {
      "name": "フレアージュ塚口",
      "addr": "兵庫県尼崎市上坂部3-11-1",
      "lat": 34.7498105,
      "lng": 135.4322644,
      "staffName": "未割当"
    },
    {
      "name": "松井様(戸建)",
      "addr": "兵庫県尼崎市若王寺1-21-8",
      "lat": 34.7513764,
      "lng": 135.436367,
      "staffName": "未割当"
    },
    {
      "name": "アビタシオンデュプルミエ",
      "addr": "兵庫県尼崎市若王寺1-19-1",
      "lat": 34.7507593,
      "lng": 135.4365335,
      "staffName": "未割当"
    },
    {
      "name": "グリーンコーポ園田",
      "addr": "兵庫県尼崎市若王寺1-25-1",
      "lat": 34.7500334,
      "lng": 135.4381357,
      "staffName": "未割当"
    }
  ]
}