{
  "mode": "admin",
  "pref": "27",
  "d": "1:217025004,217025005,217026001,222062002,222062003,222062004,222062005,222063002,222063003,222063004;2:222062006,222062007,222062008,222062009,226011001,226011002,226014002;3:226015002,226015003,226015004,226015005,226015006,2260160,2260170,226020001,226020002;4:226012001,226012002,2260130,226014001,226015001,226015009,2260180;5:222061007,222061008,222061009,222061010,222062001,222063001,222064001,222064002,222064003;6:222021001,222021002,222021005,222021006,222022005,222025001,222061005,222061006;7:222061001,222061002,222061003,222061004,226009002,226009003,2260330;8:226003001,2260050,226007001,226007002,226007003,226007004,226009001,2260040",
  "pw": "9af15b336e6a9619928537df30b2e6a2376569fcf9d7e773eccede65606529a0",
  "kinshi": [
    {
      "name": "ローレルコート",
      "addr": "一津屋5-15-4",
      "lat": 34.7619764,
      "lng": 135.5664792,
      "staffName": "担当1"
    },
    {
      "name": "メロディーハイム高鷲",
      "addr": "高鷲1-9-8",
      "lat": 34.5701994,
      "lng": 135.5869063,
      "staffName": "担当7"
    },
    {
      "name": "ドミール高鷲",
      "addr": "羽曳野市高鷲2-16-1",
      "lat": 34.5673737,
      "lng": 135.5859205,
      "staffName": "担当7"
    },
    {
      "name": "藤井寺グリーンハイツ",
      "addr": "羽曳野市高鷲4-9",
      "lat": 34.5645473,
      "lng": 135.5898251,
      "staffName": "担当7"
    },
    {
      "name": "サカクラ、ナラカズ長屋",
      "addr": "羽曳野市島泉5-8-9",
      "lat": 34.5793745,
      "lng": 135.5799033,
      "staffName": "担当1"
    },
    {
      "name": "松ハイツ",
      "addr": "羽曳野市島泉9-8-26",
      "lat": 34.5720583,
      "lng": 135.5854558,
      "staffName": "担当2"
    },
    {
      "name": "八田様",
      "addr": "羽曳野市恵我之荘6-18-5",
      "lat": 34.5756582,
      "lng": 135.56898,
      "staffName": "未割当"
    },
    {
      "name": "個人宅　4戸すべて",
      "addr": "羽曳野市南恵我之荘5-25-11",
      "lat": 34.567196,
      "lng": 135.5694415,
      "staffName": "未割当"
    },
    {
      "name": "パレット",
      "addr": "藤井寺市藤井寺1-17-",
      "lat": 34.5699272,
      "lng": 135.5956188,
      "staffName": "未判定"
    },
    {
      "name": "ナービス藤井寺恵美坂",
      "addr": "藤井寺市恵美坂1-2-3",
      "lat": 34.5729037,
      "lng": 135.5910823,
      "staffName": "担当2"
    }
  ]
}