{
  "mode": "admin",
  "pref": "28",
  "d": "1:202139201,202139202,202149005,207027101,207056001,207056002,207056003,207056004,207056005,207074001,207074002,207074004,207074006,207089001,2070010;2:207005001,207005002,207024001,207024002,207024003,207085001,207085002,207085003,207085004,207089002,207089003,207020101,207020102,207020103,207020104;3:207005003,207005004,207005005,207005006,207005007,207005008,207059001,207059002,207059003,207059004,207059005,207059006,207059007,207072001,207072002,207072003,207072004,207072005,207072006,207072007;4:207042001,207042002,207042003,207042004,207042005,207042006,207051001,207051002,207051003,207051004,207051005,207073001,207073002",
  "pw": "9af15b336e6a9619928537df30b2e6a2376569fcf9d7e773eccede65606529a0",
  "kinshi": [
    {
      "name": "ヤマグチ様(戸建)",
      "addr": "兵庫県尼崎市猪名寺1-29-33",
      "lat": 34.7696513,
      "lng": 135.4246022,
      "staffName": "担当1"
    },
    {
      "name": "ハイネスアオノ",
      "addr": "兵庫県尼崎市猪名寺2-6-12",
      "lat": 34.7649315,
      "lng": 135.4236716,
      "staffName": "担当1"
    },
    {
      "name": "アリオⅠ",
      "addr": "兵庫県伊丹市伊丹1-10",
      "lat": 34.78127509999999,
      "lng": 135.4199484,
      "staffName": "担当2"
    },
    {
      "name": "丹兵ビル",
      "addr": "兵庫県伊丹市伊丹1-6-2",
      "lat": 34.7817098,
      "lng": 135.4195687,
      "staffName": "担当2"
    },
    {
      "name": "ユニライフ伊丹",
      "addr": "兵庫県伊丹市伊丹1-13-47",
      "lat": 34.7829293,
      "lng": 135.4204943,
      "staffName": "担当2"
    },
    {
      "name": "リブコート伊丹駅前",
      "addr": "兵庫県伊丹市伊丹1-13-13",
      "lat": 34.7827553,
      "lng": 135.4202942,
      "staffName": "担当2"
    },
    {
      "name": "アリオⅡ",
      "addr": "兵庫県伊丹市伊丹2-5-5",
      "lat": 34.7800724,
      "lng": 135.4205733,
      "staffName": "担当2"
    },
    {
      "name": "エステムコート伊丹郷町ＴＨＥＨＯＵＳＥ",
      "addr": "兵庫県伊丹市伊丹3-1-7",
      "lat": 34.779862,
      "lng": 135.4188033,
      "staffName": "担当3"
    },
    {
      "name": "伊丹ガーデンハウスミレニアム",
      "addr": "兵庫県伊丹市伊丹4-2-23",
      "lat": 34.7777426,
      "lng": 135.4189321,
      "staffName": "担当3"
    },
    {
      "name": "ジオ伊丹ブライトステージ(703号室　つぼい様)",
      "addr": "兵庫県伊丹市伊丹4-7-1",
      "lat": 34.775332,
      "lng": 135.4196603,
      "staffName": "担当3"
    },
    {
      "name": "コスモスハイツ",
      "addr": "兵庫県伊丹市伊丹6-1-1",
      "lat": 34.7741064,
      "lng": 135.4192387,
      "staffName": "担当3"
    },
    {
      "name": "サニーハイツ梅ノ木Ⅰ(101号室木之下様)",
      "addr": "兵庫県伊丹市梅ノ木3-3-37",
      "lat": 34.7751945,
      "lng": 135.413946,
      "staffName": "未割当"
    },
    {
      "name": "ドエル北伊丹",
      "addr": "兵庫県伊丹市北本町2-117-4",
      "lat": 34.7868096,
      "lng": 135.4160888,
      "staffName": "担当2"
    },
    {
      "name": "アンビエンテ伊丹",
      "addr": "兵庫県伊丹市行基町2-23-1",
      "lat": 34.779034,
      "lng": 135.4094678,
      "staffName": "未割当"
    },
    {
      "name": "マンション鷹",
      "addr": "兵庫県伊丹市桜ケ丘5-2-29",
      "lat": 34.7856276,
      "lng": 135.4096854,
      "staffName": "未割当"
    },
    {
      "name": "高尾様",
      "addr": "兵庫県伊丹市鈴原町6-54-2",
      "lat": 34.7756032,
      "lng": 135.4040959,
      "staffName": "未割当"
    },
    {
      "name": "西原マンション",
      "addr": "兵庫県伊丹市鈴原町7-56-1",
      "lat": 34.7764236,
      "lng": 135.4051531,
      "staffName": "未割当"
    },
    {
      "name": "ルネサスデザイン千僧寮",
      "addr": "兵庫県伊丹市千僧3-107",
      "lat": 34.7851186,
      "lng": 135.4060208,
      "staffName": "未割当"
    },
    {
      "name": "ウィル伊丹リヴェール",
      "addr": "兵庫県伊丹市中央3-1-5",
      "lat": 34.780729,
      "lng": 135.4168845,
      "staffName": "担当4"
    },
    {
      "name": "ネバーランド伊丹中央（1303号室ﾊﾗｸﾞﾁ様・1301号室原口様）",
      "addr": "兵庫県伊丹市中央5-2-28",
      "lat": 34.7788774,
      "lng": 135.4163093,
      "staffName": "担当4"
    },
    {
      "name": "藤和伊丹ホームズ",
      "addr": "兵庫県伊丹市西台3-2-25",
      "lat": 34.7779371,
      "lng": 135.4146543,
      "staffName": "担当4"
    },
    {
      "name": "ヒルズ西台",
      "addr": "兵庫県伊丹市西台3-4-8",
      "lat": 34.7771211,
      "lng": 135.4153593,
      "staffName": "担当4"
    },
    {
      "name": "コトウビル",
      "addr": "兵庫県伊丹市西台4-1-1",
      "lat": 34.7792101,
      "lng": 135.4131484,
      "staffName": "担当4"
    },
    {
      "name": "デュオ平松",
      "addr": "兵庫県伊丹市平松2-2-6",
      "lat": 34.7748319,
      "lng": 135.4163251,
      "staffName": "担当3"
    },
    {
      "name": "泉ハウス",
      "addr": "兵庫県伊丹市平松2-1-11",
      "lat": 34.7752787,
      "lng": 135.4162552,
      "staffName": "担当3"
    },
    {
      "name": "ロイヤルヴィラ新伊丹",
      "addr": "兵庫県伊丹市平松5-1-17",
      "lat": 34.7720681,
      "lng": 135.4164564,
      "staffName": "担当3"
    },
    {
      "name": "県営伊丹南町高層住宅２号棟",
      "addr": "兵庫県伊丹市南町3-1-14",
      "lat": 34.7688652,
      "lng": 135.4213906,
      "staffName": "未割当"
    },
    {
      "name": "県営伊丹南町高層住宅１号棟",
      "addr": "兵庫県伊丹市南町3-1-15",
      "lat": 34.768398,
      "lng": 135.420867,
      "staffName": "未割当"
    },
    {
      "name": "セントラル第二伊丹",
      "addr": "兵庫県伊丹市南本町1-1-12",
      "lat": 34.7764583,
      "lng": 135.4179977,
      "staffName": "担当3"
    },
    {
      "name": "ウイングパル",
      "addr": "兵庫県伊丹市南本町5-2-10",
      "lat": 34.7720131,
      "lng": 135.4190029,
      "staffName": "担当3"
    },
    {
      "name": "西口様",
      "addr": "兵庫県伊丹市南鈴原3-151",
      "lat": 34.7699882,
      "lng": 135.4066249,
      "staffName": "未割当"
    }
  ]
}