{
  "mode": "staff",
  "staffName": "担当11",
  "pref": "27",
  "d": "2272220,227049001,227049002",
  "kinshi": [
    {
      "name": "ヴェリテ永和駅前",
      "addr": "高井田元町1丁目2-36",
      "lat": 34.6648234,
      "lng": 135.573744,
      "staffName": "担当11"
    },
    {
      "name": "ローレルコート小阪",
      "addr": "高井田元町2丁目13-30",
      "lat": 34.6654469,
      "lng": 135.5766207,
      "staffName": "担当11"
    },
    {
      "name": "リベールフォレスタ永和駅前",
      "addr": "高井田元町2丁目8-18",
      "lat": 34.6648958,
      "lng": 135.5750322,
      "staffName": "担当11"
    },
    {
      "name": "レックスシティ小阪",
      "addr": "高井田元町2丁目4-5",
      "lat": 34.664652,
      "lng": 135.5775501,
      "staffName": "担当11"
    },
    {
      "name": "永和グランドハイツ",
      "addr": "高井田元町2丁目9-11",
      "lat": 34.6648597,
      "lng": 135.5743258,
      "staffName": "担当11"
    }
  ]
}