{
  "mode": "staff",
  "staffName": "担当1",
  "pref": "27",
  "d": "205008002,2050620",
  "kinshi": [
    {
      "name": "ユカミハイツ江坂",
      "addr": "大阪府吹田市江坂町2-1-26",
      "lat": 34.7621092,
      "lng": 135.4969593,
      "staffName": "担当1"
    },
    {
      "name": "ペルル江坂ブランアージュ",
      "addr": "大阪府吹田市江坂町2-1-35",
      "lat": 34.7622117,
      "lng": 135.4964828,
      "staffName": "担当1"
    },
    {
      "name": "コスモ江坂パークフォルム",
      "addr": "大阪府吹田市江坂町2-25-7",
      "lat": 34.7638035,
      "lng": 135.4897569,
      "staffName": "担当1"
    },
    {
      "name": "大建コーポ江坂",
      "addr": "大阪府吹田市江坂町2-3-30",
      "lat": 34.763407,
      "lng": 135.4955654,
      "staffName": "担当1"
    },
    {
      "name": "江坂ハイデンス",
      "addr": "大阪府吹田市江坂町2-1-8",
      "lat": 34.763692,
      "lng": 135.4969927,
      "staffName": "担当1"
    },
    {
      "name": "杉原様(戸建)",
      "addr": "大阪府吹田市江坂町2-3-13",
      "lat": 34.7631085,
      "lng": 135.4953796,
      "staffName": "担当1"
    },
    {
      "name": "丁目20-20ライオンズマンション第7江坂",
      "addr": "大阪府吹田市江坂町2",
      "lat": 34.7630946,
      "lng": 135.4927885,
      "staffName": "担当1"
    },
    {
      "name": "サンマンション江坂",
      "addr": "大阪府吹田市豊津町1-14",
      "lat": 34.760774,
      "lng": 135.4969094,
      "staffName": "担当1"
    },
    {
      "name": "セレッソコート江坂アネックス",
      "addr": "大阪府吹田市豊津町60-3",
      "lat": 34.7580333,
      "lng": 135.4884794,
      "staffName": "担当1"
    },
    {
      "name": "戸建（横井様）",
      "addr": "大阪府吹田市豊津町62-17",
      "lat": 34.7586509,
      "lng": 135.487882,
      "staffName": "担当1"
    },
    {
      "name": "榎原様宅",
      "addr": "大阪府吹田市豊津町25-2",
      "lat": 34.7602361,
      "lng": 135.4919854,
      "staffName": "担当1"
    },
    {
      "name": "アパートメンツ江坂（旧：パークアクシス江坂豊津町）",
      "addr": "大阪府吹田市豊津町16-10",
      "lat": 34.757794,
      "lng": 135.4934144,
      "staffName": "担当1"
    },
    {
      "name": "エバーランド・江坂藏人",
      "addr": "大阪府吹田市豊津町24-13",
      "lat": 34.7600682,
      "lng": 135.4922911,
      "staffName": "担当1"
    },
    {
      "name": "ドミトリー江坂（ドーミー江坂豊津かも）",
      "addr": "大阪府吹田市豊津町35-30",
      "lat": 34.7614969,
      "lng": 135.4900562,
      "staffName": "担当1"
    }
  ]
}