{
  "mode": "staff",
  "staffName": "担当1",
  "pref": "27",
  "d": "121002006,121002007,121002008,121003002,121003003,121003004,121003005,121003006,121003007,121003008",
  "kinshi": [
    {
      "name": "トーカンジェネラス東住吉",
      "addr": "大阪市東住吉区杭全7-2-9",
      "lat": 34.634687089,
      "lng": 135.541321773,
      "staffName": "担当1"
    },
    {
      "name": "MINTIA今川（旧今川王子ハイツ）",
      "addr": "大阪市東住吉区今川2-8-1",
      "lat": 34.630423911,
      "lng": 135.539366425,
      "staffName": "担当1"
    },
    {
      "name": "寿マンション",
      "addr": "大阪市東住吉区今川4-20-8",
      "lat": 34.627779705,
      "lng": 135.537141245,
      "staffName": "担当1"
    },
    {
      "name": "平野葬祭",
      "addr": "大阪市東住吉区今川４丁目４−４",
      "lat": 34.630101225,
      "lng": 135.536720617,
      "staffName": "担当1"
    },
    {
      "name": "ラ・フォンテ今川",
      "addr": "大阪市東住吉区今川7-10-8",
      "lat": 34.625006021,
      "lng": 135.53716125300002,
      "staffName": "担当1"
    }
  ]
}