{
  "mode": "admin",
  "pref": "28",
  "d": "1:214517104,214517105,214517106,214518003,214518004,214518005,214518006,214518007;2:214502007,214503001,214503002,214517101,214517102,214517103,214518001,214518002,2145191,2145172;3:214410002,214502001,214502002,214502003,214502005,214519002,214520202",
  "pw": "9af15b336e6a9619928537df30b2e6a2376569fcf9d7e773eccede65606529a0",
  "kinshi": [
    {
      "name": "ハイネスクラウズ宝塚清荒神",
      "addr": "清荒神1-2-9",
      "lat": 34.8107248,
      "lng": 135.3512274,
      "staffName": "未割当"
    },
    {
      "name": "リーフアベニュー宝塚売布",
      "addr": "売布3-15-31",
      "lat": 34.8167934,
      "lng": 135.3581758,
      "staffName": "未割当"
    },
    {
      "name": "宝塚ガーデンヴィレッジ",
      "addr": "宝塚市売布四丁目3-30",
      "lat": 34.8181846,
      "lng": 135.3624558,
      "staffName": "未判定"
    },
    {
      "name": "宝塚ロジュマン",
      "addr": "売布東の町11-10",
      "lat": 34.8172055,
      "lng": 135.3642662,
      "staffName": "未割当"
    },
    {
      "name": "リバーサイド中山寺203号室",
      "addr": "中山寺1-18-5",
      "lat": 34.8215831,
      "lng": 135.3678023,
      "staffName": "未割当"
    },
    {
      "name": "ライオンズ宝塚売布A～C棟全部",
      "addr": "中山荘園1-37",
      "lat": 34.8203343,
      "lng": 135.3640011,
      "staffName": "未割当"
    },
    {
      "name": "沈西様宅",
      "addr": "中筋山手2-5-27",
      "lat": 34.8239349,
      "lng": 135.3733607,
      "staffName": "担当3"
    },
    {
      "name": "セレッソコート宝塚グラシオ",
      "addr": "長尾町17-6",
      "staffName": "未割当"
    },
    {
      "name": "メゾン宝塚山本",
      "addr": "宝塚市山本南3-12-1",
      "lat": 34.8187138,
      "lng": 135.3930947,
      "staffName": "未割当"
    },
    {
      "name": "ツインコート宝塚山本",
      "addr": "口谷西1-5-2",
      "lat": 34.8171806,
      "lng": 135.3933911,
      "staffName": "未割当"
    }
  ]
}