{
  "mode": "staff",
  "staffName": "担当2",
  "pref": "27",
  "d": "2230260,2230280,2230290,2230420,2230520,2230610,2230620",
  "kinshi": [
    {
      "name": "ネオコーポ門真",
      "addr": "大阪府門真市栄町1-6",
      "lat": 34.737323668,
      "lng": 135.581901792,
      "staffName": "担当2"
    },
    {
      "name": "プロパレス門真セウアズール",
      "addr": "大阪府門真市栄町29-13",
      "lat": 34.733894864,
      "lng": 135.581576419,
      "staffName": "担当2"
    },
    {
      "name": "門真新橋団地",
      "addr": "大阪府門真市新橋町3",
      "lat": 34.736205,
      "lng": 135.584038,
      "staffName": "担当2"
    },
    {
      "name": "エクセレント清萌",
      "addr": "大阪府門真市新橋町6-10",
      "lat": 34.736823602,
      "lng": 135.584442334,
      "staffName": "担当2"
    },
    {
      "name": "エスリード門真駅前",
      "addr": "大阪府門真市新橋町2-3",
      "lat": 34.737780419,
      "lng": 135.585906537,
      "staffName": "担当2"
    },
    {
      "name": "グランドムール門真",
      "addr": "大阪府門真市柳町5-1",
      "lat": 34.737338699,
      "lng": 135.586059726,
      "staffName": "担当2"
    }
  ]
}