{
  "mode": "staff",
  "staffName": "担当2",
  "pref": "27",
  "d": "141113001,141113002,141113003,141114001,141114002,141114003,141114004,141087001,141087002,141087003,141087004,141088001,141088002,141088003,141088004,141090001,141090002,141090003,141090004,141091001,141091002,141091003,141091004,141147001,141147002,141147003,141147004,141150001,141150002,141150003,141150004,141151001,141151002,141148001,141148002,141148004,141083001,141083002,141083003,141083004,141084001,141084002,141084003,141084004,141119001,141119002,141119003,141119004,141120001,141120002,141120003,141120004",
  "kinshi": [
    {
      "name": "丁1-17宿院ピア",
      "addr": "大阪府堺市堺区寺地町東2",
      "lat": 34.572763,
      "lng": 135.470851,
      "staffName": "担当2"
    },
    {
      "name": "丁1-30フェリスヴィラ",
      "addr": "大阪府堺市堺区寺地町東3",
      "lat": 34.5723344,
      "lng": 135.4717342,
      "staffName": "担当2"
    },
    {
      "name": "丁1-8堺ＰＳＧビル",
      "addr": "大阪府堺市堺区少林寺町西1",
      "lat": 34.5732142,
      "lng": 135.4682015,
      "staffName": "担当2"
    },
    {
      "name": "丁2-6プレナス御陵前",
      "addr": "大阪府堺市堺区南旅篭町西1",
      "lat": 34.5712182,
      "lng": 135.4665825,
      "staffName": "担当2"
    },
    {
      "name": "丁1-30センチュリーハイツ堺",
      "addr": "大阪府堺市堺区南旅篭町東1",
      "lat": 34.5705829,
      "lng": 135.4673184,
      "staffName": "担当2"
    },
    {
      "name": "戸建(ヤ)",
      "addr": "大阪府堺市堺区中之町西1-2-13",
      "lat": 34.5747219,
      "lng": 135.4692503,
      "staffName": "担当2"
    }
  ]
}