{
  "mode": "staff",
  "staffName": "担当5",
  "pref": "28",
  "d": "202108001,202108002,202108003,202108004,202108005,202108006,202115203,202125101,202125102,202125103,207003003,207003004,207003005,207016001,207016002,207016003,207076003,202115202",
  "kinshi": [
    {
      "name": "塚口ネオコーポラス",
      "addr": "兵庫県尼崎市塚口町1-22-1",
      "lat": 34.7545709,
      "lng": 135.4123564,
      "staffName": "担当5"
    },
    {
      "name": "ベル塚口",
      "addr": "兵庫県尼崎市塚口町1-32-5",
      "lat": 34.7561696,
      "lng": 135.4133836,
      "staffName": "担当5"
    },
    {
      "name": "モンテベルデ塚口",
      "addr": "兵庫県尼崎市塚口町1-15-18",
      "lat": 34.7548248,
      "lng": 135.4141898,
      "staffName": "担当5"
    },
    {
      "name": "ＬＥＧＡＣＹＭＩＹＡＫＥ",
      "addr": "兵庫県尼崎市塚口町2-32-3",
      "lat": 34.758296,
      "lng": 135.413142,
      "staffName": "担当5"
    },
    {
      "name": "クレオ塚口町",
      "addr": "兵庫県尼崎市塚口町5-10-4",
      "lat": 34.7533052,
      "lng": 135.405293,
      "staffName": "担当5"
    },
    {
      "name": "フェリシオ塚口",
      "addr": "兵庫県尼崎市南塚口町2-7-1",
      "lat": 34.7521522,
      "lng": 135.4171915,
      "staffName": "担当5"
    },
    {
      "name": "Hissa・Curar（カワイハイツ）",
      "addr": "兵庫県尼崎市南塚口町2-14-21",
      "lat": 34.751090142,
      "lng": 135.417851486,
      "staffName": "担当5"
    },
    {
      "name": "プラウド阪急塚口駅前",
      "addr": "兵庫県尼崎市南塚口町2-1-3",
      "lat": 34.7521541,
      "lng": 135.4153169,
      "staffName": "担当5"
    },
    {
      "name": "ハイツモリタ",
      "addr": "兵庫県尼崎市塚口本町1-11-5",
      "lat": 34.754649074,
      "lng": 135.416884579,
      "staffName": "担当5"
    },
    {
      "name": "アンセストラル・ベース",
      "addr": "兵庫県尼崎市塚口本町2-25-1",
      "lat": 34.756292264,
      "lng": 135.418799632,
      "staffName": "担当5"
    },
    {
      "name": "ライオンズマンション塚口",
      "addr": "兵庫県尼崎市塚口本町2-30-1",
      "lat": 34.757552815,
      "lng": 135.418228339,
      "staffName": "担当5"
    }
  ]
}