{
  "mode": "admin",
  "pref": "27",
  "d": "5:127014002,127025007,127025008,127038001,127038002,127038003,127039001,127039002,127040003;6:127002001,127002002,1270120,127034001,127034002,127034003,127035001,127035002,127035003,127035004,1270410,1270530",
  "pw": "9af15b336e6a9619928537df30b2e6a2376569fcf9d7e773eccede65606529a0",
  "kinshi": [
    {
      "name": "ブランズ桜ノ宮",
      "addr": "大阪府大阪市都島区中野町5-10-107",
      "lat": 34.705920294,
      "lng": 135.520648998,
      "staffName": "未割当"
    },
    {
      "name": "桜宮リバーシティ・ウォータータワープラザ",
      "addr": "大阪府大阪市都島区中野町5-13-3",
      "lat": 34.706712268,
      "lng": 135.519122698,
      "staffName": "未割当"
    },
    {
      "name": "桜宮リバーシティＮＡＣ１号棟",
      "addr": "大阪府大阪市都島区中野町5-14-1",
      "lat": 34.706610893,
      "lng": 135.52036431,
      "staffName": "未割当"
    },
    {
      "name": "桜宮リバーシティＮＡＣ２号棟",
      "addr": "大阪府大阪市都島区中野町5-14-2",
      "lat": 34.706707087,
      "lng": 135.520347102,
      "staffName": "未割当"
    },
    {
      "name": "桜宮リバーシティウエスト13-1号棟",
      "addr": "大阪府大阪市都島区中野町5-13-1",
      "lat": 34.706536222,
      "lng": 135.519186505,
      "staffName": "未割当"
    },
    {
      "name": "白銀マンション",
      "addr": "大阪府大阪市都島区都島中通1-4-6",
      "lat": 34.704738148,
      "lng": 135.528286436,
      "staffName": "担当4"
    },
    {
      "name": "圓相第一マンション",
      "addr": "大阪府大阪市都島区都島本通1-5-4",
      "lat": 34.708971469,
      "lng": 135.522988437,
      "staffName": "未割当"
    },
    {
      "name": "東洋ライオンズマンション都島",
      "addr": "大阪府大阪市都島区都島本通1-8-6",
      "lat": 34.709589901,
      "lng": 135.524298993,
      "staffName": "未割当"
    },
    {
      "name": "ジョイ都島本通",
      "addr": "大阪府大阪市都島区都島本通1-14-7",
      "lat": 34.709256132,
      "lng": 135.521609597,
      "staffName": "未割当"
    },
    {
      "name": "ウエノマンション",
      "addr": "大阪府大阪市都島区都島本通1-14-8",
      "lat": 34.709260976,
      "lng": 135.521719967,
      "staffName": "未割当"
    },
    {
      "name": "星住様(戸建)",
      "addr": "大阪府大阪市都島区都島本通1-16-5",
      "lat": 34.709336248,
      "lng": 135.520283585,
      "staffName": "未割当"
    },
    {
      "name": "エル・メゾン",
      "addr": "大阪府大阪市都島区都島本通1-2-11",
      "lat": 34.708774533,
      "lng": 135.520624838,
      "staffName": "未割当"
    },
    {
      "name": "メゾンドソレイユ",
      "addr": "大阪府大阪市都島区都島本通4-2",
      "lat": 34.707287,
      "lng": 135.532405,
      "staffName": "担当4"
    },
    {
      "name": "シャトー中島",
      "addr": "大阪府大阪市都島区都島本通4-21-24",
      "lat": 34.707918923,
      "lng": 135.532394475,
      "staffName": "担当4"
    },
    {
      "name": "中島マンションアルタス都島",
      "addr": "大阪府大阪市都島区都島本通4-21-6",
      "lat": 34.708212552,
      "lng": 135.532438894,
      "staffName": "担当4"
    },
    {
      "name": "メゾン・ド・ソレイユ",
      "addr": "大阪府大阪市都島区都島本通4-2-20",
      "lat": 34.705912911000006,
      "lng": 135.532489904,
      "staffName": "担当4"
    },
    {
      "name": "中島マンション別館",
      "addr": "大阪府大阪市都島区都島本通4-23-24",
      "lat": 34.708272496,
      "lng": 135.532462348,
      "staffName": "担当4"
    },
    {
      "name": "シャトー中島別館",
      "addr": "大阪府大阪市都島区都島本通4-23-24",
      "lat": 34.708272496,
      "lng": 135.532462348,
      "staffName": "担当4"
    },
    {
      "name": "プレサンスロジェ都島本通〔イースト・ウエスト〕",
      "addr": "大阪府大阪市都島区都島本通4-8-19",
      "lat": 34.70675748,
      "lng": 135.532002875,
      "staffName": "担当4"
    },
    {
      "name": "古谷（店舗兼住居かも）",
      "addr": "大阪府大阪市都島区都島本通4-1-29",
      "lat": 34.705987268,
      "lng": 135.531013231,
      "staffName": "担当4"
    },
    {
      "name": "古谷様(古谷米穀)",
      "addr": "大阪府大阪市都島区都島本通4-1-29",
      "lat": 34.705987268,
      "lng": 135.531013231,
      "staffName": "担当4"
    },
    {
      "name": "フィオーレ都島北",
      "addr": "大阪府大阪市都島区都島北通1-13-4",
      "lat": 34.710691204,
      "lng": 135.527459201,
      "staffName": "担当4"
    },
    {
      "name": "【3番地全域禁止(ヤ)】",
      "addr": "大阪府大阪市都島区都島北通1-3-6",
      "lat": 34.709356165,
      "lng": 135.528136144,
      "staffName": "担当4"
    },
    {
      "name": "栗原様(栗原ビル)",
      "addr": "大阪府大阪市都島区都島北通1-4-19",
      "lat": 34.709166822,
      "lng": 135.530526473,
      "staffName": "担当4"
    },
    {
      "name": "（戸建）",
      "addr": "大阪府大阪市都島区都島北通2-4-9",
      "lat": 34.709524056,
      "lng": 135.533970466,
      "staffName": "担当4"
    },
    {
      "name": "朝日プラザ都島本通パサージュ",
      "addr": "大阪府大阪市都島区都島北通2-15-12",
      "lat": 34.711041543,
      "lng": 135.531635161,
      "staffName": "担当4"
    },
    {
      "name": "長岡様(戸建)",
      "addr": "大阪府大阪市都島区都島北通2-10-5",
      "lat": 34.710322058,
      "lng": 135.533495449,
      "staffName": "担当4"
    },
    {
      "name": "吉田様(戸建)",
      "addr": "大阪府大阪市都島区都島北通2-5-3",
      "lat": 34.709461105,
      "lng": 135.532285069,
      "staffName": "担当4"
    },
    {
      "name": "セントプレイス大阪（全棟）",
      "addr": "大阪府大阪市都島区善源寺町2",
      "lat": 34.712166,
      "lng": 135.525992,
      "staffName": "未割当"
    },
    {
      "name": "セントプレイス大阪ウィスタリアコート",
      "addr": "大阪府大阪市都島区善源寺町2-2-1",
      "lat": 34.7108389,
      "lng": 135.526458393,
      "staffName": "未割当"
    },
    {
      "name": "ファステート都島テーラー",
      "addr": "大阪府大阪市都島区高倉町1-11-29",
      "lat": 34.71396185,
      "lng": 135.531584998,
      "staffName": "未割当"
    },
    {
      "name": "カサーレ都島高倉町",
      "addr": "大阪府大阪市都島区高倉町3-4-32",
      "lat": 34.718170107,
      "lng": 135.53166068,
      "staffName": "未割当"
    },
    {
      "name": "朝日プラザ都島Ⅱ　205号室",
      "addr": "大阪府大阪市都島区御幸町1-5-26",
      "lat": 34.713409306,
      "lng": 135.53282911600002,
      "staffName": "未割当"
    },
    {
      "name": "サンシャイン御幸",
      "addr": "大阪府大阪市都島区御幸町1-5-24",
      "lat": 34.71339730500001,
      "lng": 135.533042646,
      "staffName": "未割当"
    },
    {
      "name": "井手様(戸建)",
      "addr": "大阪府大阪市都島区御幸町1-8-2",
      "lat": 34.714017963,
      "lng": 135.532673056,
      "staffName": "未割当"
    },
    {
      "name": "御幸第１コーポ",
      "addr": "大阪府大阪市都島区御幸町2-11-1",
      "lat": 34.717116412,
      "lng": 135.534136801,
      "staffName": "未割当"
    },
    {
      "name": "友渕コーポ",
      "addr": "大阪府大阪市都島区友渕町1-3-10",
      "lat": 34.716387197,
      "lng": 135.522320957,
      "staffName": "未割当"
    },
    {
      "name": "ベルパークシティアネックスイーストＥ-1棟",
      "addr": "大阪府大阪市都島区友渕町1-4-1",
      "lat": 34.718928749,
      "lng": 135.527199316,
      "staffName": "未割当"
    },
    {
      "name": "ベルパークシティM棟",
      "addr": "大阪府大阪市都島区友渕町1-5-11",
      "lat": 34.71672905,
      "lng": 135.525552316,
      "staffName": "未割当"
    },
    {
      "name": "ベル・パークシティＨ棟",
      "addr": "大阪府大阪市都島区友渕町1-5-6",
      "lat": 34.716276314,
      "lng": 135.525418407,
      "staffName": "未割当"
    },
    {
      "name": "ベルパークシティJ棟",
      "addr": "大阪府大阪市都島区友渕町1-5-8",
      "lat": 34.716451257,
      "lng": 135.52546872,
      "staffName": "未割当"
    },
    {
      "name": "ベルパークシティK棟",
      "addr": "大阪府大阪市都島区友渕町1-5-9",
      "lat": 34.716534797,
      "lng": 135.525503208,
      "staffName": "未割当"
    },
    {
      "name": "ベルパークシティＡ棟",
      "addr": "大阪府大阪市都島区友渕町1-7-1",
      "lat": 34.714276102,
      "lng": 135.52666479400003,
      "staffName": "未割当"
    },
    {
      "name": "ベル・パークシティＣ棟",
      "addr": "大阪府大阪市都島区友渕町1-5-1",
      "lat": 34.715870309,
      "lng": 135.525427503,
      "staffName": "未割当"
    },
    {
      "name": "ローレルスクエア都島全棟",
      "addr": "大阪府大阪市都島区友淵町1-6",
      "lat": 34.717516,
      "lng": 135.526018,
      "staffName": "未判定"
    },
    {
      "name": "ブランズシティ都島友渕町",
      "addr": "大阪府大阪市都島区友渕町1-5",
      "lat": 34.717516,
      "lng": 135.526018,
      "staffName": "未割当"
    },
    {
      "name": "ローレルスクエア都島",
      "addr": "大阪府大阪市都島区友渕町1-6-4",
      "lat": 34.714055667,
      "lng": 135.525711617,
      "staffName": "未割当"
    },
    {
      "name": "ベルシャトウ都島友渕町（606号室 八尾様）",
      "addr": "大阪府大阪市都島区友渕町1-5-61",
      "lat": 34.718679785,
      "lng": 135.528683448,
      "staffName": "未割当"
    },
    {
      "name": "高倉グリーンマンション",
      "addr": "大阪府大阪市都島区友渕町2-12-21",
      "lat": 34.714561165,
      "lng": 135.529645206,
      "staffName": "未割当"
    },
    {
      "name": "都島ロイヤルハイツ",
      "addr": "大阪府大阪市都島区友渕町2-8-7",
      "lat": 34.715068,
      "lng": 135.530005,
      "staffName": "未割当"
    },
    {
      "name": "植田様(戸建)",
      "addr": "大阪府大阪市都島区友渕町2-7-8",
      "lat": 34.713647771,
      "lng": 135.528053559,
      "staffName": "未割当"
    },
    {
      "name": "高倉第一コーポＡ棟(909号室)",
      "addr": "大阪府大阪市都島区友渕町3-1-1",
      "lat": 34.717867467,
      "lng": 135.529999115,
      "staffName": "未割当"
    },
    {
      "name": "サンモール都島",
      "addr": "大阪府大阪市都島区友渕町3-8-26",
      "lat": 34.720467596,
      "lng": 135.529938013,
      "staffName": "未割当"
    },
    {
      "name": "ファミール都島パークサイド",
      "addr": "大阪府大阪市都島区友渕町3-9-15",
      "lat": 34.721078514,
      "lng": 135.529128025,
      "staffName": "未割当"
    },
    {
      "name": "【住所不明の為、戸建は全て禁止】",
      "addr": "大阪府大阪市都島区友淵町3-8-11",
      "lat": 34.720976847,
      "lng": 135.529453564,
      "staffName": "未判定"
    },
    {
      "name": "リヴィエールⅠ",
      "addr": "大阪府大阪市都島区毛馬町1-15-15",
      "lat": 34.719065324,
      "lng": 135.521369472,
      "staffName": "未割当"
    },
    {
      "name": "UR都市機構リバーサイドしろきた団地38号棟",
      "addr": "大阪府大阪市都島区毛馬町2-11-38",
      "lat": 34.721750411,
      "lng": 135.521845024,
      "staffName": "未割当"
    },
    {
      "name": "峯様(峯マンション)",
      "addr": "大阪府大阪市都島区毛馬町2-5-16",
      "lat": 34.722223879,
      "lng": 135.528219973,
      "staffName": "未割当"
    },
    {
      "name": "インディペンデンスハイツ",
      "addr": "大阪府大阪市都島区毛馬町3-7-24",
      "lat": 34.721645264,
      "lng": 135.518523433,
      "staffName": "未割当"
    },
    {
      "name": "ベリスタ都島毛馬橋(505号室 拝師様)",
      "addr": "大阪府大阪市都島区毛馬町4-3-24",
      "lat": 34.722690687,
      "lng": 135.521190569,
      "staffName": "未割当"
    },
    {
      "name": "ローレルハイツ北天満１号棟",
      "addr": "大阪府大阪市北区池田町1-1",
      "lat": 34.706148513,
      "lng": 135.515602405,
      "staffName": "未割当"
    },
    {
      "name": "ローレルハイツ北天満2号棟",
      "addr": "大阪府大阪市北区池田町1-2",
      "lat": 34.706157631,
      "lng": 135.515486361,
      "staffName": "未割当"
    },
    {
      "name": "パラツィーナセシリア天満",
      "addr": "大阪府大阪市北区池田町15-1",
      "lat": 34.707569145,
      "lng": 135.51302902,
      "staffName": "未割当"
    },
    {
      "name": "ストークマンション天満",
      "addr": "大阪府大阪市北区池田町1-75",
      "lat": 34.706296413,
      "lng": 135.515733414,
      "staffName": "未割当"
    },
    {
      "name": "友田マンション",
      "addr": "大阪府大阪市北区池田町12-1",
      "lat": 34.707541736,
      "lng": 135.513400257,
      "staffName": "未割当"
    },
    {
      "name": "グランドピア北天満",
      "addr": "大阪府大阪市北区池田町9-7",
      "lat": 34.707128996,
      "lng": 135.513576893,
      "staffName": "未割当"
    },
    {
      "name": "e-maハウスウメダ",
      "addr": "大阪府大阪市北区浮田1-2-8",
      "lat": 34.709067461,
      "lng": 135.508856727,
      "staffName": "担当6"
    },
    {
      "name": "山田様(戸建)",
      "addr": "大阪府大阪市北区浮田2-5-10",
      "lat": 34.709599629,
      "lng": 135.507080597,
      "staffName": "担当6"
    },
    {
      "name": "エスリード大阪梅田リュクス",
      "addr": "大阪府大阪市北区浮田2-2-29",
      "lat": 34.710146452,
      "lng": 135.507885078,
      "staffName": "担当6"
    },
    {
      "name": "パークタワー梅田",
      "addr": "大阪府大阪市北区扇町2-6-17",
      "lat": 34.705514183,
      "lng": 135.506076796,
      "staffName": "未割当"
    },
    {
      "name": "グランフロント大阪オーナーズタワー",
      "addr": "大阪府大阪市北区大深町3-40",
      "lat": 34.704761,
      "lng": 135.494368,
      "staffName": "未割当"
    },
    {
      "name": "ファインクォーターシティ（1006号室と1904号室）",
      "addr": "大阪府大阪市北区大淀北1-6-15",
      "lat": 34.706488057,
      "lng": 135.48504363900003,
      "staffName": "未割当"
    },
    {
      "name": "メゾンインペリアル大淀",
      "addr": "大阪府大阪市北区大淀中1-12-7",
      "lat": 34.704314224,
      "lng": 135.487577244,
      "staffName": "未割当"
    },
    {
      "name": "リベールシティ新梅田",
      "addr": "大阪府大阪市北区大淀中2-10-18",
      "lat": 34.70621986,
      "lng": 135.4873803,
      "staffName": "未割当"
    },
    {
      "name": "ライオンズマンション新梅田",
      "addr": "大阪府大阪市北区大淀中2-1-20",
      "lat": 34.704425199,
      "lng": 135.486144092,
      "staffName": "未割当"
    },
    {
      "name": "チェリス北梅田",
      "addr": "大阪府大阪市北区大淀中2-9-24",
      "lat": 34.705649239,
      "lng": 135.48733333,
      "staffName": "未割当"
    },
    {
      "name": "イトーピア北梅田レジスアベニュー",
      "addr": "大阪府大阪市北区大淀中4-15-18",
      "lat": 34.70538344,
      "lng": 135.482283518,
      "staffName": "未割当"
    },
    {
      "name": "メイビスタ大淀",
      "addr": "大阪府大阪市北区大淀中5-12-49",
      "lat": 34.705181657,
      "lng": 135.481665917,
      "staffName": "未割当"
    },
    {
      "name": "大淀町スカイハイツ",
      "addr": "大阪府大阪市北区大淀南1-6-4",
      "lat": 34.702505325,
      "lng": 135.48870467,
      "staffName": "未割当"
    },
    {
      "name": "大洋ハイツ梅田西",
      "addr": "大阪府大阪市北区大淀南2-9-22",
      "lat": 34.70227633,
      "lng": 135.48568505800003,
      "staffName": "未割当"
    },
    {
      "name": "ルネッサンス西梅田",
      "addr": "大阪府大阪市北区大淀南3-11-21",
      "lat": 34.701238796,
      "lng": 135.481017388,
      "staffName": "未割当"
    },
    {
      "name": "北川ビル",
      "addr": "大阪府大阪市北区神山町6-2",
      "lat": 34.70248616,
      "lng": 135.505443881,
      "staffName": "未割当"
    },
    {
      "name": "(株)野村",
      "addr": "大阪府大阪市北区神山町7-3",
      "lat": 34.702899669,
      "lng": 135.505295366,
      "staffName": "未割当"
    },
    {
      "name": "ザ・大阪レジデンス梅田",
      "addr": "大阪府大阪市北区神山町3-4",
      "lat": 34.703062992,
      "lng": 135.505884975,
      "staffName": "未割当"
    },
    {
      "name": "クロスロード菅栄",
      "addr": "大阪府大阪市北区菅栄町10-11",
      "lat": 34.708790005,
      "lng": 135.512585535,
      "staffName": "未割当"
    },
    {
      "name": "エンゼルシテイフラッツ天神橋（903号室）",
      "addr": "大阪府大阪市北区菅栄町5-20",
      "lat": 34.709569184,
      "lng": 135.514705441,
      "staffName": "未割当"
    },
    {
      "name": "カルムイン天神橋",
      "addr": "大阪府大阪市北区菅栄町1-21",
      "lat": 34.708646995,
      "lng": 135.515481081,
      "staffName": "未割当"
    },
    {
      "name": "中崎町ハイツ（105号室）",
      "addr": "大阪府大阪市北区黒崎町6-8",
      "lat": 34.707157996,
      "lng": 135.509126471,
      "staffName": "担当6"
    },
    {
      "name": "コンフォート大阪天満宮",
      "addr": "大阪府大阪市北区紅梅町1-22",
      "lat": 34.698646322,
      "lng": 135.514555902,
      "staffName": "未割当"
    },
    {
      "name": "グランドメゾン紅梅町",
      "addr": "大阪府大阪市北区紅梅町2-21",
      "lat": 34.69888940800001,
      "lng": 135.513459905,
      "staffName": "未割当"
    },
    {
      "name": "淀川リバーサイドタウンセンチュリーさくら16",
      "addr": "大阪府大阪市北区国分寺1-1-16",
      "lat": 34.710344389,
      "lng": 135.516784956,
      "staffName": "未割当"
    },
    {
      "name": "ノルデンハイム北",
      "addr": "大阪府大阪市北区国分寺1-2-10",
      "lat": 34.709303326,
      "lng": 135.516444032,
      "staffName": "未割当"
    },
    {
      "name": "ノルデンハイムリバーサイド天神橋",
      "addr": "大阪府大阪市北区国分寺1-2-13",
      "lat": 34.70939425,
      "lng": 135.516153809,
      "staffName": "未割当"
    },
    {
      "name": "桐竹ビル(ヤ)",
      "addr": "大阪府大阪市北区国分寺1-7-6",
      "lat": 34.710231232,
      "lng": 135.51354523,
      "staffName": "未割当"
    },
    {
      "name": "ベルグ天神橋",
      "addr": "大阪府大阪市北区国分寺2-3-2",
      "lat": 34.711404294,
      "lng": 135.513390755,
      "staffName": "担当5"
    },
    {
      "name": "扇町松島ビル",
      "addr": "大阪府大阪市北区末広町3-13",
      "lat": 34.702085041,
      "lng": 135.509712809,
      "staffName": "未割当"
    },
    {
      "name": "ジーニス（WEST・EAST両方）",
      "addr": "大阪府大阪市北区菅原町10-12",
      "lat": 34.693511497,
      "lng": 135.510391289,
      "staffName": "未割当"
    },
    {
      "name": "プレサンスＮＥＯ中之島公園",
      "addr": "大阪府大阪市北区菅原町9-11",
      "lat": 34.69323769,
      "lng": 135.51127345,
      "staffName": "未割当"
    },
    {
      "name": "エステムプラザ梅田（1202号室）",
      "addr": "大阪府大阪市北区曽根崎1-4-5",
      "lat": 34.699068391,
      "lng": 135.502203324,
      "staffName": "未割当"
    },
    {
      "name": "ジオグランデ梅田",
      "addr": "大阪府大阪市北区茶屋町8-21",
      "lat": 34.707665472,
      "lng": 135.499652355,
      "staffName": "未割当"
    },
    {
      "name": "ザ・梅田タワー",
      "addr": "大阪府大阪市北区鶴野町3-9",
      "lat": 34.707772749,
      "lng": 135.500803343,
      "staffName": "未割当"
    },
    {
      "name": "朝日プラザ梅田",
      "addr": "大阪府大阪市北区鶴野町4-11",
      "lat": 34.708524184,
      "lng": 135.500798829,
      "staffName": "未割当"
    },
    {
      "name": "-Ａコープ野村梅田A棟",
      "addr": "大阪府大阪市北区鶴野町4",
      "lat": 34.707634,
      "lng": 135.501109,
      "staffName": "未割当"
    },
    {
      "name": "コープ野村梅田B棟",
      "addr": "大阪府大阪市北区鶴野町4-8",
      "lat": 34.708381906,
      "lng": 135.500955742,
      "staffName": "未割当"
    },
    {
      "name": "カランドリエ",
      "addr": "大阪府大阪市北区天神西町3-11",
      "lat": 34.694792803,
      "lng": 135.509783194,
      "staffName": "未割当"
    },
    {
      "name": "ラインビルド天神橋",
      "addr": "大阪府大阪市北区天神橋1-11-7",
      "lat": 34.694062906,
      "lng": 135.511461278,
      "staffName": "未割当"
    },
    {
      "name": "ベネフィットライフ",
      "addr": "大阪府大阪市北区天神橋1-17-9",
      "lat": 34.695283254,
      "lng": 135.512676336,
      "staffName": "未割当"
    },
    {
      "name": "シャリエ天神橋ファースト",
      "addr": "大阪府大阪市北区天神橋1-18",
      "lat": 34.693518,
      "lng": 135.512542,
      "staffName": "未割当"
    },
    {
      "name": "モンテエスパーニャ",
      "addr": "大阪府大阪市北区天神橋1-5-16",
      "lat": 34.69348113600001,
      "lng": 135.512522523,
      "staffName": "未割当"
    },
    {
      "name": "ニチエンビルサンハイム南森町",
      "addr": "大阪府大阪市北区天神橋2-3-10",
      "lat": 34.696838416000006,
      "lng": 135.511192309,
      "staffName": "未割当"
    },
    {
      "name": "グラン・コート南森町",
      "addr": "大阪府大阪市北区天神橋2-2-14",
      "lat": 34.696325907,
      "lng": 135.511197664,
      "staffName": "未割当"
    },
    {
      "name": "コープ野村扇町（要管理人許可）",
      "addr": "大阪府大阪市北区天神橋3-10-30",
      "lat": 34.701976606,
      "lng": 135.512934347,
      "staffName": "未割当"
    },
    {
      "name": "レジオン南森町",
      "addr": "大阪府大阪市北区天神橋3-1-34",
      "lat": 34.699494803,
      "lng": 135.512564321,
      "staffName": "未割当"
    },
    {
      "name": "日商岩井南森町マンション",
      "addr": "大阪府大阪市北区天神橋3-4-5",
      "lat": 34.699952642,
      "lng": 135.51209271,
      "staffName": "未割当"
    },
    {
      "name": "与力町スカイハイツ",
      "addr": "大阪府大阪市北区天神橋3-10-8",
      "lat": 34.70188272,
      "lng": 135.512295537,
      "staffName": "未割当"
    },
    {
      "name": "メゾンドール川口",
      "addr": "大阪府大阪市北区天神橋3-5-22",
      "lat": 34.701149438,
      "lng": 135.511972226,
      "staffName": "未割当"
    },
    {
      "name": "キングマンション天神橋１",
      "addr": "大阪府大阪市北区天神橋4-3-17",
      "lat": 34.704502499,
      "lng": 135.512319754,
      "staffName": "未割当"
    },
    {
      "name": "ジオタワー天六",
      "addr": "大阪府大阪市北区天神橋7-1-16",
      "lat": 34.711675817,
      "lng": 135.511576345,
      "staffName": "担当5"
    },
    {
      "name": "キングマンション天神橋２",
      "addr": "大阪府大阪市北区天神橋7-11-6",
      "lat": 34.713464308,
      "lng": 135.510779185,
      "staffName": "担当5"
    },
    {
      "name": "ランドマークシティ梅田東",
      "addr": "大阪府大阪市北区天神橋7-15-12",
      "lat": 34.71474877,
      "lng": 135.511111238,
      "staffName": "担当5"
    },
    {
      "name": "シティーズアーク天満橋",
      "addr": "大阪府大阪市北区天満1-18-16",
      "lat": 34.694950815,
      "lng": 135.518766473,
      "staffName": "未割当"
    },
    {
      "name": "天満パークハウス",
      "addr": "大阪府大阪市北区天満1-3-3",
      "lat": 34.692237911,
      "lng": 135.518732877,
      "staffName": "未割当"
    },
    {
      "name": "コープ野村天満橋（要管理人許可）",
      "addr": "大阪府大阪市北区天満2-6-3",
      "lat": 34.693851174,
      "lng": 135.516440277,
      "staffName": "担当1"
    },
    {
      "name": "ロジュマンタワー大阪天満橋",
      "addr": "大阪府大阪市北区天満2-10-19",
      "lat": 34.694868884,
      "lng": 135.516496264,
      "staffName": "担当1"
    },
    {
      "name": "角野ビル（ヒロビルかも）",
      "addr": "大阪府大阪市北区天満2-2-1",
      "lat": 34.692093038,
      "lng": 135.516483813,
      "staffName": "担当1"
    },
    {
      "name": "大宝北天満ロイヤルハイツ",
      "addr": "大阪府大阪市北区天満3-5-3",
      "lat": 34.693432489,
      "lng": 135.515519405,
      "staffName": "担当1"
    },
    {
      "name": "ラナップスクエア南森町",
      "addr": "大阪府大阪市北区天満3-8-6",
      "lat": 34.694532164,
      "lng": 135.515480676,
      "staffName": "担当1"
    },
    {
      "name": "ノルデンハイム天満橋",
      "addr": "大阪府大阪市北区天満3-4-14",
      "lat": 34.693310557,
      "lng": 135.515677158,
      "staffName": "担当1"
    },
    {
      "name": "アリスト天満宮前",
      "addr": "大阪府大阪市北区天満4-16-19",
      "lat": 34.695687292,
      "lng": 135.514420682,
      "staffName": "担当1"
    },
    {
      "name": "天満ビル",
      "addr": "大阪府大阪市北区天満4-15-13",
      "lat": 34.696025315,
      "lng": 135.514852877,
      "staffName": "担当1"
    },
    {
      "name": "(戸建)",
      "addr": "大阪府大阪市北区天満4-5-2",
      "lat": 34.692831104,
      "lng": 135.51398564,
      "staffName": "担当1"
    },
    {
      "name": "ＯＡＰレジデンスタワー東館",
      "addr": "大阪府大阪市北区天満橋1-8-10",
      "lat": 34.698785051,
      "lng": 135.520002107,
      "staffName": "未割当"
    },
    {
      "name": "ＯＡＰレジデンスタワー西館",
      "addr": "大阪府大阪市北区天満橋1-8-15",
      "lat": 34.698788167,
      "lng": 135.519456189,
      "staffName": "未割当"
    },
    {
      "name": "エスリード天満橋",
      "addr": "大阪府大阪市北区天満橋1-8-64",
      "lat": 34.702143124,
      "lng": 135.518051855,
      "staffName": "未割当"
    },
    {
      "name": "メロディハイム・グランセーヌ",
      "addr": "大阪府大阪市北区天満橋2-3-10",
      "lat": 34.704277123,
      "lng": 135.517012797,
      "staffName": "未割当"
    },
    {
      "name": "天満橋筋ビューハイツ",
      "addr": "大阪府大阪市北区天満橋2-2-11",
      "lat": 34.703313299,
      "lng": 135.51752628100002,
      "staffName": "未割当"
    },
    {
      "name": "ロイヤルアーク花水都ＯＳＡＫＡ",
      "addr": "大阪府大阪市北区天満橋2-4-4",
      "lat": 34.705213885,
      "lng": 135.516981312,
      "staffName": "未割当"
    },
    {
      "name": "アルカディーナ天満橋リバーサイド",
      "addr": "大阪府大阪市北区天満橋2-2-7",
      "lat": 34.702974635,
      "lng": 135.517692596,
      "staffName": "未割当"
    },
    {
      "name": "プレサンスロジェ天満橋リバーテラス",
      "addr": "大阪府大阪市北区天満橋2-3-16",
      "lat": 34.704775386,
      "lng": 135.51677718,
      "staffName": "未割当"
    },
    {
      "name": "カネイワビル",
      "addr": "大阪府大阪市北区天満橋3-5-32",
      "lat": 34.705340849,
      "lng": 135.51616545,
      "staffName": "未割当"
    },
    {
      "name": "天満橋Ⅲビル",
      "addr": "大阪府大阪市北区天満橋3-1-11",
      "lat": 34.70382686,
      "lng": 135.516864903,
      "staffName": "未割当"
    },
    {
      "name": "アトリウム同心",
      "addr": "大阪府大阪市北区同心1-2-15",
      "lat": 34.700389312,
      "lng": 135.516828522,
      "staffName": "未割当"
    },
    {
      "name": "ＥＰＯ同心レジデンス",
      "addr": "大阪府大阪市北区同心1-2-22",
      "lat": 34.700112871,
      "lng": 135.517255963,
      "staffName": "未割当"
    },
    {
      "name": "ラナップスクエア同心",
      "addr": "大阪府大阪市北区同心1-2-23",
      "lat": 34.70003249,
      "lng": 135.51725062,
      "staffName": "未割当"
    },
    {
      "name": "プレサンスロジェ大阪同心",
      "addr": "大阪府大阪市北区同心1-8-2",
      "lat": 34.700399123,
      "lng": 135.517908269,
      "staffName": "未割当"
    },
    {
      "name": "カレッジハウス天神橋プラザ",
      "addr": "大阪府大阪市北区同心2-12-10",
      "lat": 34.703474826,
      "lng": 135.515343842,
      "staffName": "未割当"
    },
    {
      "name": "サンキャドマス扇町",
      "addr": "大阪府大阪市北区同心2-15-27",
      "lat": 34.7028728,
      "lng": 135.517406713,
      "staffName": "未割当"
    },
    {
      "name": "ＴＤＭ",
      "addr": "大阪府大阪市北区同心2-4-25",
      "lat": 34.70268,
      "lng": 135.51532,
      "staffName": "未割当"
    },
    {
      "name": "クレヴィア扇町公園",
      "addr": "大阪府大阪市北区同心2-7-17",
      "lat": 34.703082342,
      "lng": 135.513914937,
      "staffName": "未割当"
    },
    {
      "name": "ファミール扇町アーバンステージ",
      "addr": "大阪府大阪市北区同心2-3-23",
      "lat": 34.702513615,
      "lng": 135.515807563,
      "staffName": "未割当"
    },
    {
      "name": "エクセルＯＧＭ",
      "addr": "大阪府大阪市北区同心2-6-10",
      "lat": 34.703240217,
      "lng": 135.513166043,
      "staffName": "未割当"
    },
    {
      "name": "エスリード同心第2",
      "addr": "大阪府大阪市北区同心2-2-19",
      "lat": 34.70240797500001,
      "lng": 135.516874776,
      "staffName": "未割当"
    },
    {
      "name": "ルネ天満",
      "addr": "大阪府大阪市北区同心2-1-13",
      "lat": 34.702028856,
      "lng": 135.517172663,
      "staffName": "未割当"
    },
    {
      "name": "クレヴィア大阪同心イースト",
      "addr": "大阪府大阪市北区同心2-14-7",
      "lat": 34.702792526,
      "lng": 135.516288384,
      "staffName": "未割当"
    },
    {
      "name": "ノルデンハイム同心",
      "addr": "大阪府大阪市北区同心2-13-18",
      "lat": 34.70334343,
      "lng": 135.516040504,
      "staffName": "未割当"
    },
    {
      "name": "ラシュレ大阪同心",
      "addr": "大阪府大阪市北区同心2-13-16",
      "lat": 34.703357856,
      "lng": 135.515817964,
      "staffName": "未割当"
    },
    {
      "name": "新堂島ビル",
      "addr": "大阪府大阪市北区堂島2-1-40",
      "lat": 34.696145098,
      "lng": 135.495373227,
      "staffName": "未割当"
    },
    {
      "name": "堂島アーバンライフ",
      "addr": "大阪府大阪市北区堂島2-1-25",
      "lat": 34.696378723,
      "lng": 135.494170558,
      "staffName": "未割当"
    },
    {
      "name": "堂島ザ・レジデンスマークタワー",
      "addr": "大阪府大阪市北区堂島2-2-8",
      "lat": 34.696522933,
      "lng": 135.494455543,
      "staffName": "未割当"
    },
    {
      "name": "梅田シティビラアクト３",
      "addr": "大阪府大阪市北区堂山町15-4",
      "lat": 34.704354158,
      "lng": 135.503243405,
      "staffName": "未割当"
    },
    {
      "name": "関西中央ビル別館（101号室）",
      "addr": "大阪府大阪市北区堂山町15-2",
      "lat": 34.70431904,
      "lng": 135.503445646,
      "staffName": "未割当"
    },
    {
      "name": "エステムコート梅田茶屋町デュアルスペース",
      "addr": "大阪府大阪市北区豊崎1-12-12",
      "lat": 34.71272809,
      "lng": 135.502998236,
      "staffName": "担当3"
    },
    {
      "name": "ＢＥＬＩＳＴＡ北梅田",
      "addr": "大阪府大阪市北区豊崎1-11-6",
      "lat": 34.711851869,
      "lng": 135.503272801,
      "staffName": "担当3"
    },
    {
      "name": "株式会社大淀通信機製作所(ジム工芸)",
      "addr": "大阪府大阪市北区豊崎2-10-22",
      "lat": 34.711400628,
      "lng": 135.50226983,
      "staffName": "担当2"
    },
    {
      "name": "ウェリス・ジオ梅田レジデンス",
      "addr": "大阪府大阪市北区豊崎3-11-6",
      "lat": 34.709730588,
      "lng": 135.498531744,
      "staffName": "担当2"
    },
    {
      "name": "朝日プラザ梅田Ⅱ",
      "addr": "大阪府大阪市北区豊崎3-8-5",
      "lat": 34.709662981,
      "lng": 135.499469969,
      "staffName": "担当2"
    },
    {
      "name": "商業豊崎マンション",
      "addr": "大阪府大阪市北区豊崎4-6-20",
      "lat": 34.713248732,
      "lng": 135.500798039,
      "staffName": "担当2"
    },
    {
      "name": "クレビス21",
      "addr": "大阪府大阪市北区豊崎4-6-3",
      "lat": 34.712777037,
      "lng": 135.50097338,
      "staffName": "担当2"
    },
    {
      "name": "レジデンス梅田ローレルタワー",
      "addr": "大阪府大阪市北区豊崎4-6-7",
      "lat": 34.712754017,
      "lng": 135.500552018,
      "staffName": "担当2"
    },
    {
      "name": "福田様(戸建)",
      "addr": "大阪府大阪市北区豊崎4-4-4",
      "lat": 34.711789027,
      "lng": 135.500838628,
      "staffName": "担当2"
    },
    {
      "name": "グランアッシュ梅田ヴィークス",
      "addr": "大阪府大阪市北区豊崎4-1-8",
      "lat": 34.711978085,
      "lng": 135.501764477,
      "staffName": "担当2"
    },
    {
      "name": "セレッソコート梅田ノーザンシティ",
      "addr": "大阪府大阪市北区豊崎6-10-8",
      "lat": 34.715116626,
      "lng": 135.500733647,
      "staffName": "担当2"
    },
    {
      "name": "ヒューマンポート洗心洞",
      "addr": "大阪府大阪市北区豊崎6-11-17",
      "lat": 34.715892574,
      "lng": 135.500528325,
      "staffName": "担当2"
    },
    {
      "name": "メロウィングパレス",
      "addr": "大阪府大阪市北区豊崎6-2-8",
      "lat": 34.714036224,
      "lng": 135.501796736,
      "staffName": "担当2"
    },
    {
      "name": "アパートメント21",
      "addr": "大阪府大阪市北区豊崎7-2-10",
      "lat": 34.714086471,
      "lng": 135.498580398,
      "staffName": "担当2"
    },
    {
      "name": "第２幸福マンション",
      "addr": "大阪府大阪市北区豊崎7-3-23",
      "lat": 34.716173,
      "lng": 135.499266,
      "staffName": "担当2"
    },
    {
      "name": "中津グランドハイツ",
      "addr": "大阪府大阪市北区豊崎7-4-11",
      "lat": 34.71535393,
      "lng": 135.499234858,
      "staffName": "担当2"
    },
    {
      "name": "CASAZABU",
      "addr": "大阪府大阪市北区中崎1-10-12",
      "lat": 34.707867235,
      "lng": 135.506856859,
      "staffName": "担当6"
    },
    {
      "name": "中崎コーポ",
      "addr": "大阪府大阪市北区中崎1-6-14",
      "lat": 34.707237546,
      "lng": 135.506162823,
      "staffName": "担当6"
    },
    {
      "name": "池田様(戸建)",
      "addr": "大阪府大阪市北区中崎1-11-11",
      "lat": 34.708081929,
      "lng": 135.507220473,
      "staffName": "担当6"
    },
    {
      "name": "Caprice茶屋町東",
      "addr": "大阪府大阪市北区中崎2-4-10",
      "lat": 34.709103878,
      "lng": 135.505615226,
      "staffName": "担当6"
    },
    {
      "name": "エーベルグランツ梅田",
      "addr": "大阪府大阪市北区中崎3-2-27",
      "lat": 34.708493346,
      "lng": 135.505592357,
      "staffName": "担当6"
    },
    {
      "name": "ザ・パークハウス梅田",
      "addr": "大阪府大阪市北区中崎西1-6-14",
      "lat": 34.70708504,
      "lng": 135.504063037,
      "staffName": "担当6"
    },
    {
      "name": "サムティ梅田インターコア",
      "addr": "大阪府大阪市北区中崎西3-3-32",
      "lat": 34.708147432,
      "lng": 135.502287441,
      "staffName": "担当6"
    },
    {
      "name": "メロディーハイム中津三番館",
      "addr": "大阪府大阪市北区中津1-13-17",
      "lat": 34.711910654,
      "lng": 135.497454792,
      "staffName": "担当2"
    },
    {
      "name": "メロディハイム中津5番館",
      "addr": "大阪府大阪市北区中津1-17-12",
      "lat": 34.712404697,
      "lng": 135.496766366,
      "staffName": "担当2"
    },
    {
      "name": "ルモン中津",
      "addr": "大阪府大阪市北区中津1-17-17",
      "lat": 34.712747829,
      "lng": 135.497173002,
      "staffName": "担当2"
    },
    {
      "name": "木村産業(株）",
      "addr": "大阪府大阪市北区中津1-18-9",
      "lat": 34.712981451,
      "lng": 135.497792836,
      "staffName": "担当2"
    },
    {
      "name": "茶屋町北シティタワー",
      "addr": "大阪府大阪市北区中津1-7-6",
      "lat": 34.710513246,
      "lng": 135.495184716,
      "staffName": "担当2"
    },
    {
      "name": "ザ・セントラルマークタワー",
      "addr": "大阪府大阪市北区中津1-6-29",
      "lat": 34.710409436,
      "lng": 135.49629758900002,
      "staffName": "担当2"
    },
    {
      "name": "メロディハイム中津",
      "addr": "大阪府大阪市北区中津2-4-5",
      "lat": 34.712325499,
      "lng": 135.495665161,
      "staffName": "担当2"
    },
    {
      "name": "サンハイム中野",
      "addr": "大阪府大阪市北区中津2-4-27",
      "lat": 34.713021298,
      "lng": 135.495823106,
      "staffName": "担当2"
    },
    {
      "name": "メゾン中津",
      "addr": "大阪府大阪市北区中津2-5-33",
      "lat": 34.713659221,
      "lng": 135.49636652,
      "staffName": "担当2"
    },
    {
      "name": "ユニハイム梅田ノルテ",
      "addr": "大阪府大阪市北区中津2-9-48",
      "lat": 34.715334748,
      "lng": 135.498476673,
      "staffName": "担当2"
    },
    {
      "name": "中津リバーサイドコーポ",
      "addr": "大阪府大阪市北区中津2-8",
      "lat": 34.715565,
      "lng": 135.496288,
      "staffName": "担当2"
    },
    {
      "name": "パークプラザ北梅田",
      "addr": "大阪府大阪市北区中津3-11-2",
      "lat": 34.711070163,
      "lng": 135.493839644,
      "staffName": "未割当"
    },
    {
      "name": "三恵ガーデンハイツ",
      "addr": "大阪府大阪市北区中津3-33-12",
      "lat": 34.713981732,
      "lng": 135.49484335,
      "staffName": "未割当"
    },
    {
      "name": "三恵グランドハイツ",
      "addr": "大阪府大阪市北区中津3-33-16",
      "lat": 34.713633415,
      "lng": 135.49494431,
      "staffName": "未割当"
    },
    {
      "name": "剣ビル",
      "addr": "大阪府大阪市北区中津3-35-5",
      "lat": 34.713978345,
      "lng": 135.49394839,
      "staffName": "未割当"
    },
    {
      "name": "福中ビル",
      "addr": "大阪府大阪市北区中津3-3-34",
      "lat": 34.710927062,
      "lng": 135.492250777,
      "staffName": "未割当"
    },
    {
      "name": "パークホームズノースゲートスクエア",
      "addr": "大阪府大阪市北区中津3-24-3",
      "lat": 34.71113083,
      "lng": 135.491748576,
      "staffName": "未割当"
    },
    {
      "name": "中津パーク・マンション(607号室)",
      "addr": "大阪府大阪市北区中津3-36-7",
      "lat": 34.714507679,
      "lng": 135.494477631,
      "staffName": "未割当"
    },
    {
      "name": "中津パークマンション",
      "addr": "大阪府大阪市北区中津3-36-7",
      "lat": 34.714507679,
      "lng": 135.494477631,
      "staffName": "未割当"
    },
    {
      "name": "ネバーランド新梅田",
      "addr": "大阪府大阪市北区中津5-8-9",
      "lat": 34.707831017,
      "lng": 135.491702994,
      "staffName": "未割当"
    },
    {
      "name": "市営中津第二住宅",
      "addr": "大阪府大阪市北区中津6-10",
      "lat": 34.709029,
      "lng": 135.490083,
      "staffName": "未割当"
    },
    {
      "name": "エスリード新梅田ノースポイント",
      "addr": "大阪府大阪市北区中津6-7-7",
      "lat": 34.707817832,
      "lng": 135.488776355,
      "staffName": "未割当"
    },
    {
      "name": "ラ・フィーナ北梅田",
      "addr": "大阪府大阪市北区中津6-8-6",
      "lat": 34.708738597,
      "lng": 135.488657902,
      "staffName": "未割当"
    },
    {
      "name": "レオンコンフォート新梅田　302号室",
      "addr": "大阪府大阪市北区中津6-7-19",
      "lat": 34.70774182,
      "lng": 135.487725075,
      "staffName": "未割当"
    },
    {
      "name": "ドルチェヴィータ新梅田",
      "addr": "大阪府大阪市北区中津6-4-3",
      "lat": 34.709103343,
      "lng": 135.490969833,
      "staffName": "未割当"
    },
    {
      "name": "エスパシオ２１",
      "addr": "大阪府大阪市北区中津7-3-2",
      "lat": 34.710264754,
      "lng": 135.48827350500002,
      "staffName": "未割当"
    },
    {
      "name": "ユニ・アルス天神橋イースト（505号室）",
      "addr": "大阪府大阪市北区長柄中2-1-24",
      "lat": 34.712549579,
      "lng": 135.515920256,
      "staffName": "担当5"
    },
    {
      "name": "戸建",
      "addr": "大阪府大阪市北区長柄中3-12-1",
      "lat": 34.71784105,
      "lng": 135.515203392,
      "staffName": "担当5"
    },
    {
      "name": "第一山崎マンション（104号室）",
      "addr": "大阪府大阪市北区長柄中3-12-5",
      "lat": 34.718011636,
      "lng": 135.514943265,
      "staffName": "担当5"
    },
    {
      "name": "エグゼコート天六",
      "addr": "大阪府大阪市北区長柄西1-3-20",
      "lat": 34.713383626,
      "lng": 135.512309339,
      "staffName": "担当5"
    },
    {
      "name": "ブランズシティ天神橋筋六丁目",
      "addr": "大阪府大阪市北区長柄西1-3-54",
      "lat": 34.713379097,
      "lng": 135.51413447,
      "staffName": "担当5"
    },
    {
      "name": "ジオ天六ツインタワーズ",
      "addr": "大阪府大阪市北区長柄西1-3-22",
      "lat": 34.713559554,
      "lng": 135.512347009,
      "staffName": "担当5"
    },
    {
      "name": "クレスタ梅田ＥＡＳＴアヴァンツィオ",
      "addr": "大阪府大阪市北区長柄西2-11",
      "lat": 34.717736,
      "lng": 135.513174,
      "staffName": "担当5"
    },
    {
      "name": "淀川リバーサイドタウンさくら１３番館",
      "addr": "大阪府大阪市北区長柄東1-2-13",
      "lat": 34.71058663,
      "lng": 135.516769569,
      "staffName": "未割当"
    },
    {
      "name": "メゾン・ド・ゴトウ",
      "addr": "大阪府大阪市北区浪花町10-14",
      "lat": 34.708446532,
      "lng": 135.510667986,
      "staffName": "担当6"
    },
    {
      "name": "ハイツコトブキ",
      "addr": "大阪府大阪市北区浪花町13-6",
      "lat": 34.708832459,
      "lng": 135.510050121,
      "staffName": "担当6"
    },
    {
      "name": "ＨＯＰＥＣＩＴＹ天神橋",
      "addr": "大阪府大阪市北区浪花町13-33",
      "lat": 34.709552501,
      "lng": 135.510630726,
      "staffName": "担当6"
    },
    {
      "name": "ファミリアーレ",
      "addr": "大阪府大阪市北区浪花町11-12",
      "lat": 34.708462241,
      "lng": 135.509708483,
      "staffName": "担当6"
    },
    {
      "name": "Azureve天六",
      "addr": "大阪府大阪市北区浪花町14-35",
      "lat": 34.709923405,
      "lng": 135.510608769,
      "staffName": "担当6"
    },
    {
      "name": "ヴィークタワー大阪",
      "addr": "大阪府大阪市北区西天満1-8-9",
      "lat": 34.694391796,
      "lng": 135.506563659,
      "staffName": "未割当"
    },
    {
      "name": "ユニシオ西天満二丁目（D02　古藤様）",
      "addr": "大阪府大阪市北区西天満2-2-3",
      "lat": 34.696150269,
      "lng": 135.503126831,
      "staffName": "未割当"
    },
    {
      "name": "リヴァージュ西天満",
      "addr": "大阪府大阪市北区西天満3-3-21",
      "lat": 34.695609777,
      "lng": 135.508812514,
      "staffName": "未割当"
    },
    {
      "name": "アネシス",
      "addr": "大阪府大阪市北区西天満3-4-3",
      "lat": 34.695672226,
      "lng": 135.508935564,
      "staffName": "未割当"
    },
    {
      "name": "藤和シティーホームズ",
      "addr": "大阪府大阪市北区西天満3-9-5",
      "lat": 34.69565294,
      "lng": 135.506835045,
      "staffName": "未割当"
    },
    {
      "name": "シティタワー梅田イースト",
      "addr": "大阪府大阪市北区西天満3-13-29",
      "lat": 34.696879552,
      "lng": 135.507526289,
      "staffName": "未割当"
    },
    {
      "name": "閤師様(戸建)",
      "addr": "大阪府大阪市北区西天満3-12-3",
      "lat": 34.695844029,
      "lng": 135.507069892,
      "staffName": "未割当"
    },
    {
      "name": "リーガル西天満Ⅲ",
      "addr": "大阪府大阪市北区西天満3-6-26",
      "lat": 34.697466569,
      "lng": 135.50829472600003,
      "staffName": "未割当"
    },
    {
      "name": "朝日プラザ西天満",
      "addr": "大阪府大阪市北区西天満3-8-4",
      "lat": 34.695039592,
      "lng": 135.5072619,
      "staffName": "未割当"
    },
    {
      "name": "エスリード梅田新道Ⅱ",
      "addr": "大阪府大阪市北区西天満4-11-5",
      "lat": 34.697313063,
      "lng": 135.503022685,
      "staffName": "未割当"
    },
    {
      "name": "シティハウス南森町",
      "addr": "大阪府大阪市北区西天満5-2-6",
      "lat": 34.698360104,
      "lng": 135.508500078,
      "staffName": "未割当"
    },
    {
      "name": "和光ビル",
      "addr": "大阪府大阪市北区西天満5-14-7",
      "lat": 34.698999659,
      "lng": 135.506277545,
      "staffName": "未割当"
    },
    {
      "name": "カレッジハウス天満駅前ﾌﾟﾗｻﾞ",
      "addr": "大阪府大阪市北区錦町2-5",
      "lat": 34.70446983,
      "lng": 135.513259185,
      "staffName": "未割当"
    },
    {
      "name": "ノルデンハイム梅田東",
      "addr": "大阪府大阪市北区野崎町1-16",
      "lat": 34.701394107,
      "lng": 135.50765337,
      "staffName": "未割当"
    },
    {
      "name": "シティタワー東梅田パークフロント",
      "addr": "大阪府大阪市北区野崎町1-30",
      "lat": 34.701078686,
      "lng": 135.508229955,
      "staffName": "未割当"
    },
    {
      "name": "ジオナ天神橋",
      "addr": "大阪府大阪市北区樋之口町2-13",
      "lat": 34.708815262,
      "lng": 135.517140858,
      "staffName": "未割当"
    },
    {
      "name": "シティタワー大阪天満",
      "addr": "大阪府大阪市北区樋之口町1-20",
      "lat": 34.708176406,
      "lng": 135.515974291,
      "staffName": "未割当"
    },
    {
      "name": "おおきに大阪天満サニーアパートメント（旧：サムティプリンスバンサンク）",
      "addr": "大阪府大阪市北区樋之口町1-4",
      "lat": 34.706786222,
      "lng": 135.516182,
      "staffName": "未割当"
    },
    {
      "name": "ノルデンタワー南森町プレミアム",
      "addr": "大阪府大阪市北区東天満1-7-22",
      "lat": 34.696996635,
      "lng": 135.516073825,
      "staffName": "担当1"
    },
    {
      "name": "ノルデンハイム南森町",
      "addr": "大阪府大阪市北区東天満1-6-2",
      "lat": 34.696525638,
      "lng": 135.516470947,
      "staffName": "担当1"
    },
    {
      "name": "ランズ南森町",
      "addr": "大阪府大阪市北区東天満2-2-18",
      "lat": 34.697733619,
      "lng": 135.517019822,
      "staffName": "未割当"
    },
    {
      "name": "若杉センタービル本館",
      "addr": "大阪府大阪市北区東天満2-9-1",
      "lat": 34.697471685,
      "lng": 135.514359141,
      "staffName": "未割当"
    },
    {
      "name": "ローレルタワー南森町ル・サンク",
      "addr": "大阪府大阪市北区東天満2-6-1",
      "lat": 34.697405656,
      "lng": 135.515356491,
      "staffName": "未割当"
    },
    {
      "name": "グランコート東天満",
      "addr": "大阪府大阪市北区東天満2-1-11",
      "lat": 34.697800336,
      "lng": 135.517338003,
      "staffName": "未割当"
    },
    {
      "name": "リベールシティ北梅田グランシャリオ",
      "addr": "大阪府大阪市北区本庄西1-11-5",
      "lat": 34.710784127,
      "lng": 135.504677984,
      "staffName": "担当3"
    },
    {
      "name": "グランドールテンシン",
      "addr": "大阪府大阪市北区本庄西1-3-16",
      "lat": 34.711625379,
      "lng": 135.506131895,
      "staffName": "担当3"
    },
    {
      "name": "桑形商店",
      "addr": "大阪府大阪市北区本庄西2-18-14",
      "lat": 34.712859771,
      "lng": 135.50406697200003,
      "staffName": "担当3"
    },
    {
      "name": "ラフィーネ天神",
      "addr": "大阪府大阪市北区本庄西2-8-15",
      "lat": 34.714703208,
      "lng": 135.506269357,
      "staffName": "担当3"
    },
    {
      "name": "ライフ北梅田(旧：フォルム北梅田)",
      "addr": "大阪府大阪市北区本庄西2-1-32",
      "lat": 34.712877399,
      "lng": 135.506572069,
      "staffName": "担当3"
    },
    {
      "name": "エスヴェール北梅田(202号室)",
      "addr": "大阪府大阪市北区本庄西2-22-5",
      "lat": 34.713865182000006,
      "lng": 135.503627546,
      "staffName": "担当3"
    },
    {
      "name": "エスリード梅田北",
      "addr": "大阪府大阪市北区本庄西2-12-19",
      "lat": 34.714383611,
      "lng": 135.50453994100002,
      "staffName": "担当3"
    },
    {
      "name": "ノルデンタワー天神橋アネックス",
      "addr": "大阪府大阪市北区本庄東1-1-1",
      "lat": 34.710975254,
      "lng": 135.510426739,
      "staffName": "担当3"
    },
    {
      "name": "ノルデンタワー天神橋",
      "addr": "大阪府大阪市北区本庄東1-1-2",
      "lat": 34.710953022,
      "lng": 135.510294916,
      "staffName": "担当3"
    },
    {
      "name": "アシスト90",
      "addr": "大阪府大阪市北区本庄東1-18-14",
      "lat": 34.712370815,
      "lng": 135.508297254,
      "staffName": "担当3"
    },
    {
      "name": "メゾンオリビエ",
      "addr": "大阪府大阪市北区本庄東1-21-5",
      "lat": 34.7113262,
      "lng": 135.507298512,
      "staffName": "担当3"
    },
    {
      "name": "ノルデンハイム天神橋アドバンス",
      "addr": "大阪府大阪市北区本庄東1-13-2",
      "lat": 34.710794556,
      "lng": 135.509047217,
      "staffName": "担当3"
    },
    {
      "name": "カサ・エスペラール",
      "addr": "大阪府大阪市北区本庄東2-15-8",
      "lat": 34.714029012,
      "lng": 135.506576424,
      "staffName": "担当3"
    },
    {
      "name": "ノルデンハイム天神橋",
      "addr": "大阪府大阪市北区本庄東2-2-26",
      "lat": 34.714430578,
      "lng": 135.510464499,
      "staffName": "担当3"
    },
    {
      "name": "丸善天六レジデンス(803号室)",
      "addr": "大阪府大阪市北区本庄東2-2-35",
      "lat": 34.713633313,
      "lng": 135.510482412,
      "staffName": "担当3"
    },
    {
      "name": "レアレア梅田7番館",
      "addr": "大阪府大阪市北区本庄東3-5-13",
      "lat": 34.717575691,
      "lng": 135.510346369,
      "staffName": "担当3"
    },
    {
      "name": "リバーサイドほんじょう住宅1号棟",
      "addr": "大阪府大阪市北区本庄東3-7-1",
      "lat": 34.71688047,
      "lng": 135.508551713,
      "staffName": "担当3"
    },
    {
      "name": "コンフォート松ヶ枝Ⅱ",
      "addr": "大阪府大阪市北区松ケ枝町8-20",
      "lat": 34.699670407,
      "lng": 135.515565051,
      "staffName": "未割当"
    },
    {
      "name": "コンフォート松ヶ枝Ⅰ",
      "addr": "大阪府大阪市北区松ケ枝町8-23",
      "lat": 34.69943251,
      "lng": 135.51559988,
      "staffName": "未割当"
    },
    {
      "name": "グランドメゾン松ヶ枝町",
      "addr": "大阪府大阪市北区松ケ枝町6-21",
      "lat": 34.698689724,
      "lng": 135.515537638,
      "staffName": "未割当"
    },
    {
      "name": "UR機構梅田団地",
      "addr": "大阪府大阪市北区万歳町3-8",
      "lat": 34.70475458,
      "lng": 135.503890381,
      "staffName": "未割当"
    },
    {
      "name": "ローレルタワー梅田",
      "addr": "大阪府大阪市北区万歳町5-12",
      "lat": 34.705979272,
      "lng": 135.504495159,
      "staffName": "未割当"
    },
    {
      "name": "ロジュマンタワー梅田",
      "addr": "大阪府大阪市北区万歳町3-39",
      "lat": 34.705131262,
      "lng": 135.504725351,
      "staffName": "未割当"
    },
    {
      "name": "センチュリーパークユニ東梅田",
      "addr": "大阪府大阪市北区南扇町7-2",
      "lat": 34.701733597,
      "lng": 135.507459804,
      "staffName": "未割当"
    },
    {
      "name": "シティコーポ南森町（905号室）",
      "addr": "大阪府大阪市北区南森町2-2-7",
      "lat": 34.697859758,
      "lng": 135.509619035,
      "staffName": "未割当"
    },
    {
      "name": "ハイマート南森町",
      "addr": "大阪府大阪市北区南森町2-3-29",
      "lat": 34.699414442,
      "lng": 135.510770212,
      "staffName": "未割当"
    },
    {
      "name": "ユニハイム与力町公園",
      "addr": "大阪府大阪市北区与力町1-18",
      "lat": 34.700555907,
      "lng": 135.514010175,
      "staffName": "未割当"
    },
    {
      "name": "扇町コーポ",
      "addr": "大阪府大阪市北区与力町6-6",
      "lat": 34.701621625,
      "lng": 135.514219799,
      "staffName": "未割当"
    },
    {
      "name": "プラネスーペリア与力町（要管理人許可）",
      "addr": "大阪府大阪市北区与力町7-2",
      "lat": 34.701646,
      "lng": 135.513612494,
      "staffName": "未割当"
    },
    {
      "name": "セレッソコート与力町公園アーバンズ",
      "addr": "大阪府大阪市北区与力町1-26",
      "lat": 34.700352556,
      "lng": 135.51473009,
      "staffName": "未割当"
    },
    {
      "name": "ローレルコート与力町エルグレース(1405号室)",
      "addr": "大阪府大阪市北区与力町2-16",
      "lat": 34.700560564,
      "lng": 135.512763969,
      "staffName": "未割当"
    }
  ]
}