{
  "mode": "admin",
  "pref": "27",
  "d": "1:217025005,217026001,222062004,222062005,222062006,222062007,226015002,226015003,226015004,2260190,226020001,226020002,226020003;2:226007001,226009001,226009003,226011001,226011002,226012001,226012002,2260130,226014001,226014002,226015001,226015005,226015009,2260160,2260170,2260180;3:222021001,222021002,222021005,222021006,222022005,222061001,222061002,222061003,222061004,222061005,222061006,2260330;4:222022001,222022002,226003001,226003002,226003003,226003004,2260050,226007002,226007003,226007004,2260080,226009002,2260040;5:222061007,222061008,222061009,222061010,222062001,222062002,222062003,222062008,222062009,222063001,222063002,222064001,222064002,222064003;6:222025001,222025002,222025003,222063004,222063005,222063006,222064004,222064005,222064006,222064007,222064008",
  "pw": "9af15b336e6a9619928537df30b2e6a2376569fcf9d7e773eccede65606529a0",
  "kinshi": [
    {
      "name": "ローレルコート",
      "addr": "松原市一津屋5-15-4",
      "lat": 34.57984,
      "lng": 135.5769975,
      "staffName": "担当1"
    },
    {
      "name": "メロディーハイム高鷲",
      "addr": "高鷲1-9-8",
      "lat": 34.5701994,
      "lng": 135.5869063,
      "staffName": "担当3"
    },
    {
      "name": "ドミール高鷲",
      "addr": "羽曳野市高鷲2-16-1",
      "lat": 34.5673737,
      "lng": 135.5859205,
      "staffName": "担当3"
    },
    {
      "name": "藤井寺グリーンハイツ",
      "addr": "羽曳野市高鷲4-9",
      "lat": 34.5645473,
      "lng": 135.5898251,
      "staffName": "担当3"
    },
    {
      "name": "サカクラ、ナラカズ長屋",
      "addr": "羽曳野市島泉5-8-9",
      "lat": 34.5793745,
      "lng": 135.5799033,
      "staffName": "担当1"
    },
    {
      "name": "松ハイツ",
      "addr": "羽曳野市島泉9-8-26",
      "lat": 34.5720583,
      "lng": 135.5854558,
      "staffName": "担当5"
    },
    {
      "name": "八田様",
      "addr": "羽曳野市恵我之荘6-18-5",
      "lat": 34.5756582,
      "lng": 135.56898,
      "staffName": "担当6"
    },
    {
      "name": "個人宅　4戸すべて",
      "addr": "羽曳野市南恵我之荘5-25-11",
      "lat": 34.567196,
      "lng": 135.5694415,
      "staffName": "担当6"
    },
    {
      "name": "パレット",
      "addr": "藤井寺市藤井寺1-17-",
      "lat": 34.5699272,
      "lng": 135.5956188,
      "staffName": "未判定"
    },
    {
      "name": "ナービス藤井寺恵美坂",
      "addr": "藤井寺市恵美坂1-2-3",
      "lat": 34.5729037,
      "lng": 135.5910823,
      "staffName": "担当2"
    }
  ]
}