{
  "mode": "admin",
  "pref": "27",
  "d": "1:210052004,2100530,210066001,210066002,210066003;2:2100560,210059001,210059003,210060001,210066004,210066009,210066011;3:2100580,215660001,2150660,215470001,2154740,215475002",
  "pw": "9af15b336e6a9619928537df30b2e6a2376569fcf9d7e773eccede65606529a0",
  "kinshi": [
    {
      "name": "戸建",
      "addr": "枚方市山之上1-15-3",
      "lat": 34.801170942,
      "lng": 135.65501104,
      "staffName": "未割当"
    },
    {
      "name": "コーナン商事枚方寮",
      "addr": "枚方市東香里元町-10-29",
      "lat": 34.781420127,
      "lng": 135.657739305,
      "staffName": "未判定"
    },
    {
      "name": "香里ケ丘ヴィアーレ",
      "addr": "枚方市香里ケ丘3-8-1",
      "lat": 34.790986,
      "lng": 135.656038,
      "staffName": "担当1"
    },
    {
      "name": "不明（102号室）",
      "addr": "寝屋川市明徳1-6-49",
      "lat": 34.774657,
      "lng": 135.650379,
      "staffName": "担当3"
    },
    {
      "name": "ソレアード天野が原",
      "addr": "交野市天野が原2-3-6",
      "lat": 34.779276,
      "lng": 135.677398,
      "staffName": "未判定"
    },
    {
      "name": "カパオプラザ",
      "addr": "交野市星田5-17-8",
      "lat": 34.765570628,
      "lng": 135.663660021,
      "staffName": "担当4"
    },
    {
      "name": "ほっこりatホーム星田",
      "addr": "交野市星田5-17-27",
      "lat": 34.765855,
      "lng": 135.663066,
      "staffName": "担当4"
    },
    {
      "name": "スランアムール",
      "addr": "交野市星田北7-5-26",
      "lat": 34.769773,
      "lng": 135.663098,
      "staffName": "担当4"
    }
  ]
}