{
  "mode": "admin",
  "pref": "27",
  "d": "1:205011001,205011002,205011003,205011004,205046002;2:205046001,205048004,205048006;3:203060001,203060002,2030610",
  "pw": "9af15b336e6a9619928537df30b2e6a2376569fcf9d7e773eccede65606529a0",
  "kinshi": [
    {
      "name": "日商岩井第２緑地公園マンション",
      "addr": "大阪府豊中市寺内1-10-22",
      "lat": 34.7729358,
      "lng": 135.492086,
      "staffName": "担当3"
    },
    {
      "name": "日商岩井第７緑地公園マンション",
      "addr": "大阪府豊中市寺内1-1-34",
      "lat": 34.7769159,
      "lng": 135.4927435,
      "staffName": "担当3"
    },
    {
      "name": "日商岩井第１３緑地公園マンション",
      "addr": "大阪府豊中市寺内1-4-39",
      "lat": 34.7742874,
      "lng": 135.4910067,
      "staffName": "担当3"
    },
    {
      "name": "日商岩井第１４緑地公園マンション",
      "addr": "大阪府豊中市寺内1-4-5",
      "lat": 34.7742786,
      "lng": 135.4912195,
      "staffName": "担当3"
    },
    {
      "name": "日商岩井第１２緑地公園マンション",
      "addr": "大阪府豊中市寺内1-7-10",
      "lat": 34.7740005,
      "lng": 135.4919547,
      "staffName": "担当3"
    },
    {
      "name": "日商岩井第１０緑地公園マンション",
      "addr": "大阪府豊中市寺内1-7-14",
      "lat": 34.77395449999999,
      "lng": 135.4923357,
      "staffName": "担当3"
    },
    {
      "name": "日商岩井第４緑地公園マンション",
      "addr": "大阪府豊中市寺内1-9-7",
      "lat": 34.7730414,
      "lng": 135.4915107,
      "staffName": "担当3"
    },
    {
      "name": "日商岩井緑地公園ﾏﾝｼｮﾝ",
      "addr": "大阪府豊中市寺内2-14-1",
      "lat": 34.7715593,
      "lng": 135.4949852,
      "staffName": "担当3"
    },
    {
      "name": "緑地野元ビル",
      "addr": "大阪府豊中市寺内2-10-1",
      "lat": 34.7733273,
      "lng": 135.4932596,
      "staffName": "担当3"
    },
    {
      "name": "ドムール千里桃山台",
      "addr": "大阪府豊中市上新田4-4-67",
      "lat": 34.8016489,
      "lng": 135.5012203,
      "staffName": "未割当"
    }
  ]
}