{
  "mode": "admin",
  "pref": "28",
  "d": "5:207004002,207004003,207004004,207004006,207004007,207014002,207043002,207043003,207043004,207043005,207043006;6:207043001,207082001,207082002,207082003,207082004,207082006,207083001,207083002,207083004,207083005,207083006,207096005,207098001,207098002;7:207032001,207032002,207081001,207097001,207064001,207064002,207064003,207064004,207084003,207084004,207084005,207084006,207099001,207099002,207099003,207099004,207096001",
  "pw": "9af15b336e6a9619928537df30b2e6a2376569fcf9d7e773eccede65606529a0",
  "kinshi": [
    {
      "name": "ロイヤルシャトー伊丹",
      "addr": "伊丹市池尻3-314",
      "lat": 34.7836815,
      "lng": 135.3806083,
      "staffName": "担当5"
    },
    {
      "name": "戸建　スギモト様",
      "addr": "荻野8-64-14",
      "lat": 34.8082269,
      "lng": 135.3879427,
      "staffName": "担当3"
    },
    {
      "name": "市営長尾住宅1号館",
      "addr": "伊丹市北野1-80",
      "lat": 34.8014454,
      "lng": 135.3873885,
      "staffName": "未割当"
    },
    {
      "name": "市営長尾住宅2号館",
      "addr": "伊丹市北野1-81",
      "lat": 34.801498,
      "lng": 135.3874336,
      "staffName": "未割当"
    },
    {
      "name": "市営長尾住宅3号館",
      "addr": "伊丹市北野1-79",
      "lat": 34.802324,
      "lng": 135.3871705,
      "staffName": "未割当"
    },
    {
      "name": "市住北野第二住宅",
      "addr": "伊丹市北野3-48",
      "lat": 34.8047838,
      "lng": 135.3856675,
      "staffName": "担当3"
    },
    {
      "name": "スワンハイム昆陽",
      "addr": "寺本3-194",
      "lat": 34.7788664,
      "lng": 135.3851567,
      "staffName": "担当5"
    },
    {
      "name": "ツインエクセルダイドー",
      "addr": "伊丹市荒牧南3-5-1",
      "lat": 34.8070698,
      "lng": 135.3830971,
      "staffName": "担当3"
    },
    {
      "name": "市営住宅荻野団地6号棟",
      "addr": "伊丹市荒牧南4-15-6",
      "lat": 34.8074309,
      "lng": 135.3874431,
      "staffName": "担当3"
    },
    {
      "name": "ビレッジハウス鴻池1～4号棟",
      "addr": "鴻池2-11-1～4",
      "lat": 34.7937833,
      "lng": 135.3881688,
      "staffName": "未判定"
    }
  ]
}