{
  "mode": "staff",
  "staffName": "担当1",
  "pref": "28",
  "d": "2170010,217002001,217011001,217011002,2170140,2170150,217017001",
  "kinshi": [
    {
      "name": "プレミール　305号室",
      "addr": "兵庫県川西市中央町18-24",
      "lat": 34.8315966,
      "lng": 135.4172151,
      "staffName": "担当1"
    },
    {
      "name": "Ｄ’クラディア川西(406号室)",
      "addr": "兵庫県川西市中央町10-5",
      "lat": 34.8298235,
      "lng": 135.414684,
      "staffName": "担当1"
    },
    {
      "name": "Ｌ’ａｖｉｏｎ川西",
      "addr": "兵庫県川西市小花1-12-16",
      "lat": 34.8249232,
      "lng": 135.4136552,
      "staffName": "担当1"
    },
    {
      "name": "ピスタ川西1",
      "addr": "兵庫県川西市小花1-20-10",
      "lat": 34.824397,
      "lng": 135.4135517,
      "staffName": "担当1"
    },
    {
      "name": "ビスタ川西(205号室 スギタ様)",
      "addr": "兵庫県川西市小花1-12-10",
      "lat": 34.8244602,
      "lng": 135.4140217,
      "staffName": "担当1"
    },
    {
      "name": "パルティＫ２北ハイツ（409号室&1009号室）",
      "addr": "兵庫県川西市栄町11-3",
      "lat": 34.8294435,
      "lng": 135.4130749,
      "staffName": "担当1"
    },
    {
      "name": "栄南団地３号棟（702号室 遠藤様）",
      "addr": "兵庫県川西市栄町27-3",
      "lat": 34.8264652,
      "lng": 135.4113383,
      "staffName": "担当1"
    },
    {
      "name": "栄南団地10号棟（605号室）",
      "addr": "兵庫県川西市栄町27-10",
      "lat": 34.826913,
      "lng": 135.4108655,
      "staffName": "担当1"
    },
    {
      "name": "リオ花屋敷",
      "addr": "兵庫県川西市花屋敷1-26-10",
      "lat": 34.8275904,
      "lng": 135.4080812,
      "staffName": "担当1"
    },
    {
      "name": "リオ花屋敷・Ⅱ",
      "addr": "兵庫県川西市花屋敷1-26-6",
      "lat": 34.8278172,
      "lng": 135.4080876,
      "staffName": "担当1"
    }
  ]
}