{
  "mode": "admin",
  "pref": "27",
  "d": "1:211046001,211088001,211088002,2111010,211121003,2111580;2:2050020,2050330,2050340,2050390,211014002;3:211013002,211037002,211037003,211046002,211046003,2110750,224002001,2240060",
  "pw": "9af15b336e6a9619928537df30b2e6a2376569fcf9d7e773eccede65606529a0",
  "kinshi": [
    {
      "name": "セントラルステージ千里青葉丘",
      "addr": "大阪府吹田市青葉丘南12-27",
      "lat": 34.8059142,
      "lng": 135.550336,
      "staffName": "担当2"
    },
    {
      "name": "アリスト吹田新芦屋ヒルズ",
      "addr": "大阪府吹田市新芦屋上10-1",
      "lat": 34.8022997,
      "lng": 135.5519463,
      "staffName": "担当2"
    },
    {
      "name": "戸建（ユルギ様）",
      "addr": "大阪府吹田市新芦屋上1-41",
      "lat": 34.7984018,
      "lng": 135.5520268,
      "staffName": "担当2"
    },
    {
      "name": "メゾン千里丘１番街　全棟",
      "addr": "大阪府吹田市新芦屋上23",
      "lat": 34.8007103,
      "lng": 135.5489672,
      "staffName": "担当2"
    },
    {
      "name": "-Ｃメゾン千里丘１番街Ｃ棟",
      "addr": "大阪府吹田市新芦屋上23",
      "lat": 34.8007103,
      "lng": 135.5489672,
      "staffName": "担当2"
    },
    {
      "name": "ルナコート千里丘の町",
      "addr": "大阪府吹田市新芦屋上2-60",
      "lat": 34.7998318,
      "lng": 135.5514366,
      "staffName": "担当2"
    },
    {
      "name": "メゾン千里丘４番街　全棟",
      "addr": "大阪府吹田市新芦屋上29",
      "lat": 34.80249420000001,
      "lng": 135.550884,
      "staffName": "担当2"
    },
    {
      "name": "ソフィア千里丘ブライトスクエア",
      "addr": "大阪府吹田市新芦屋下15",
      "lat": 34.80032620000001,
      "lng": 135.5537962,
      "staffName": "担当2"
    },
    {
      "name": "シャルム千里丘",
      "addr": "大阪府吹田市新芦屋下21-27",
      "lat": 34.8019669,
      "lng": 135.5532967,
      "staffName": "担当2"
    },
    {
      "name": "ローレルコート千里丘アウレリア",
      "addr": "大阪府吹田市新芦屋下13-6",
      "lat": 34.7990522,
      "lng": 135.5537522,
      "staffName": "担当2"
    },
    {
      "name": "ルネシーズンズ千里の丘　全棟",
      "addr": "大阪府吹田市千里丘上36",
      "lat": 34.798926,
      "lng": 135.5486355,
      "staffName": "担当2"
    },
    {
      "name": "ライオンズマンション千里丘【必ず管理人の許可が必要】",
      "addr": "大阪府吹田市千里丘上35",
      "lat": 34.7985389,
      "lng": 135.5504427,
      "staffName": "担当2"
    },
    {
      "name": "グランドソレイル(303号室)",
      "addr": "大阪府茨木市主原町1-8",
      "lat": 34.8130517,
      "lng": 135.5732972,
      "staffName": "未割当"
    },
    {
      "name": "メゾン茨木",
      "addr": "大阪府茨木市主原町6-2",
      "lat": 34.810833,
      "lng": 135.5729367,
      "staffName": "未割当"
    },
    {
      "name": "岡村様（戸建）",
      "addr": "大阪府茨木市稲葉町9-14",
      "lat": 34.8116484,
      "lng": 135.5758667,
      "staffName": "未割当"
    },
    {
      "name": "グレーシィ茨木プリマージュ（601号室 小林様宅）",
      "addr": "大阪府茨木市岩倉町1-17",
      "lat": 34.8125396,
      "lng": 135.5613733,
      "staffName": "未割当"
    },
    {
      "name": "桑原様宅",
      "addr": "大阪府茨木市宇野辺2-3-17",
      "lat": 34.8030992,
      "lng": 135.5554543,
      "staffName": "担当2"
    },
    {
      "name": "ラフィーナ茨木(404号室 波多江様宅)",
      "addr": "大阪府茨木市宇野辺2-5-34",
      "lat": 34.8051603,
      "lng": 135.5548653,
      "staffName": "担当2"
    },
    {
      "name": "長谷部様宅",
      "addr": "大阪府茨木市小川町3-12",
      "lat": 34.8105046,
      "lng": 135.5689887,
      "staffName": "未割当"
    },
    {
      "name": "レーラッハアインス403号室",
      "addr": "大阪府茨木市蔵垣内2-10-15",
      "lat": 34.7945442,
      "lng": 135.5554674,
      "staffName": "担当3"
    },
    {
      "name": "【物件不明の為、8番地全域禁止】",
      "addr": "大阪府茨木市沢良宜西1-8",
      "lat": 34.8000179,
      "lng": 135.5665401,
      "staffName": "担当1"
    },
    {
      "name": "ルイシャトレ南茨木",
      "addr": "大阪府茨木市沢良宜西3-11-23",
      "lat": 34.7933595,
      "lng": 135.5630706,
      "staffName": "担当3"
    },
    {
      "name": "澁谷様(戸建)",
      "addr": "大阪府茨木市沢良宜浜2-12-19",
      "lat": 34.7936955,
      "lng": 135.570568,
      "staffName": "未割当"
    },
    {
      "name": "須加様(戸建)",
      "addr": "大阪府茨木市沢良宜浜2-12-9",
      "lat": 34.793791,
      "lng": 135.5709031,
      "staffName": "未割当"
    },
    {
      "name": "渡邊様（戸建）",
      "addr": "大阪府茨木市沢良宜浜2-19-12",
      "lat": 34.7926604,
      "lng": 135.5714768,
      "staffName": "未割当"
    },
    {
      "name": "川合様宅（戸建）",
      "addr": "大阪府茨木市沢良宜浜2-11-9",
      "lat": 34.7940939,
      "lng": 135.5708262,
      "staffName": "未割当"
    },
    {
      "name": "宮下様(戸建)",
      "addr": "大阪府茨木市沢良宜浜2-16-8",
      "lat": 34.7932612,
      "lng": 135.5708241,
      "staffName": "未割当"
    },
    {
      "name": "古田様（戸建）",
      "addr": "大阪府茨木市沢良宜東町7-8",
      "lat": 34.7983572,
      "lng": 135.5709228,
      "staffName": "未割当"
    },
    {
      "name": "コスモスシンコ(501号室　小川様)",
      "addr": "大阪府茨木市下中条町7-5",
      "lat": 34.8127688,
      "lng": 135.5655331,
      "staffName": "未割当"
    },
    {
      "name": "ラ・フレール(501号室)",
      "addr": "大阪府茨木市下中条町4-5",
      "lat": 34.8148096,
      "lng": 135.5672536,
      "staffName": "未割当"
    },
    {
      "name": "ラビアンヌレポー",
      "addr": "大阪府茨木市下穂積2-1-10",
      "lat": 34.8129232,
      "lng": 135.5562348,
      "staffName": "未割当"
    },
    {
      "name": "小野様宅",
      "addr": "大阪府茨木市下穂積2-2-25-9",
      "lat": 34.8124169,
      "lng": 135.5556161,
      "staffName": "未割当"
    },
    {
      "name": "マーレ（301号室）",
      "addr": "大阪府茨木市下穂積2-3-4",
      "lat": 34.8116866,
      "lng": 135.5557313,
      "staffName": "未割当"
    },
    {
      "name": "サニーウェル南茨木(305号室)",
      "addr": "大阪府茨木市大正町6-6",
      "lat": 34.7941112,
      "lng": 135.5607647,
      "staffName": "担当3"
    },
    {
      "name": "カルム茨木桜通り",
      "addr": "大阪府茨木市玉櫛1-1-23",
      "lat": 34.804442,
      "lng": 135.5718845,
      "staffName": "未割当"
    },
    {
      "name": "神原様宅",
      "addr": "大阪府茨木市玉櫛2-21-21",
      "lat": 34.8011774,
      "lng": 135.5753945,
      "staffName": "未割当"
    },
    {
      "name": "ステイツ南茨木",
      "addr": "大阪府茨木市天王1-5-5",
      "lat": 34.8039267,
      "lng": 135.5619724,
      "staffName": "担当1"
    },
    {
      "name": "モンセーヌ南茨木Ａ棟・Ｂ棟",
      "addr": "大阪府茨木市天王1-8",
      "lat": 34.8020566,
      "lng": 135.562019,
      "staffName": "担当1"
    },
    {
      "name": "-Ｋ南茨木駅前ハイタウンK棟（701号室　梶木様）",
      "addr": "大阪府茨木市天王2-5",
      "lat": 34.8024202,
      "lng": 135.5641469,
      "staffName": "担当1"
    },
    {
      "name": "松尾様(戸建)",
      "addr": "大阪府茨木市天王2-9-9",
      "lat": 34.8012193,
      "lng": 135.5617072,
      "staffName": "担当1"
    },
    {
      "name": "北川様(戸建)",
      "addr": "大阪府茨木市並木町9-11",
      "lat": 34.8080567,
      "lng": 135.579495,
      "staffName": "未割当"
    },
    {
      "name": "ライフ18(205号室)",
      "addr": "大阪府茨木市並木町1-9",
      "lat": 34.8094561,
      "lng": 135.5773797,
      "staffName": "未割当"
    },
    {
      "name": "迎井様(戸建て)",
      "addr": "大阪府茨木市奈良町15-12",
      "lat": 34.8063317,
      "lng": 135.5658579,
      "staffName": "担当1"
    },
    {
      "name": "迎井様(戸建て)",
      "addr": "大阪府茨木市奈良町10-13",
      "lat": 34.8068785,
      "lng": 135.5660345,
      "staffName": "担当1"
    },
    {
      "name": "藤原様宅",
      "addr": "大阪府茨木市西中条町5-15",
      "lat": 34.8135186,
      "lng": 135.563699,
      "staffName": "未割当"
    },
    {
      "name": "プラウド茨木西中条町マークス（302号室 小川様宅)",
      "addr": "大阪府茨木市西中条町2-8",
      "lat": 34.8147419,
      "lng": 135.5633249,
      "staffName": "未割当"
    },
    {
      "name": "戸建",
      "addr": "大阪府茨木市西中条町12-20",
      "lat": 34.8122868,
      "lng": 135.5646368,
      "staffName": "未割当"
    },
    {
      "name": "ライオンズマンション茨木東中条町",
      "addr": "大阪府茨木市東中条町11-11",
      "lat": 34.8121019,
      "lng": 135.5702774,
      "staffName": "未割当"
    },
    {
      "name": "茨木東中条町パークホームズ",
      "addr": "大阪府茨木市東中条町14-21",
      "lat": 34.8112424,
      "lng": 135.5688535,
      "staffName": "未割当"
    },
    {
      "name": "～7ステイツグラン茨木A～Ｄ",
      "addr": "大阪府茨木市東中条町6",
      "lat": 34.8135575,
      "lng": 135.5689867,
      "staffName": "未割当"
    },
    {
      "name": "プラウド茨木東中条",
      "addr": "大阪府茨木市東中条町3-17",
      "lat": 34.8142308,
      "lng": 135.5687568,
      "staffName": "未割当"
    },
    {
      "name": "ファミール茨木",
      "addr": "大阪府茨木市東中条町10",
      "lat": 34.8120826,
      "lng": 135.5688932,
      "staffName": "未割当"
    },
    {
      "name": "ディアステージ茨木東中条",
      "addr": "大阪府茨木市東中条町11-5",
      "lat": 34.8121219,
      "lng": 135.569677,
      "staffName": "未割当"
    },
    {
      "name": "ジオグランデ茨木東中条ノース・レジデンス（205号室 魚住様）",
      "addr": "大阪府茨木市東中条町12-3",
      "lat": 34.8116616,
      "lng": 135.5696807,
      "staffName": "未割当"
    },
    {
      "name": "-Bステイツグラン茨木Ｂ街区（704号室　河原様）",
      "addr": "大阪府茨木市東中条町6",
      "lat": 34.8135575,
      "lng": 135.5689867,
      "staffName": "未割当"
    },
    {
      "name": "ジオグランデ茨木東中条さくら通りサウスレジデンス",
      "addr": "大阪府茨木市東中条町12-37",
      "lat": 34.8113388,
      "lng": 135.5699721,
      "staffName": "未割当"
    },
    {
      "name": "-Ｄ東奈良高層住宅D棟(402号室おおもり)",
      "addr": "大阪府茨木市東奈良3-11",
      "lat": 34.8035839,
      "lng": 135.5666267,
      "staffName": "担当1"
    },
    {
      "name": "茨木松ケ本パークホームズ",
      "addr": "大阪府茨木市松ケ本町5-39",
      "lat": 34.8135486,
      "lng": 135.5602277,
      "staffName": "未割当"
    },
    {
      "name": "美沢ハイタウンＤ棟",
      "addr": "大阪府茨木市美沢町10",
      "lat": 34.7991665,
      "lng": 135.56873,
      "staffName": "未割当"
    },
    {
      "name": "-G南茨木ハイタウン美沢Ｇ棟（608号室 鈴木様宅)",
      "addr": "大阪府茨木市美沢町5",
      "lat": 34.8007078,
      "lng": 135.5691342,
      "staffName": "未割当"
    },
    {
      "name": "デュアル茨木プレステージュ（1005号室　上田様）",
      "addr": "大阪府茨木市美沢町20-14",
      "lat": 34.7960782,
      "lng": 135.5673797,
      "staffName": "未割当"
    },
    {
      "name": "戸建　（小村・澤井　様）　（森　様）",
      "addr": "大阪府茨木市水尾2-7-39",
      "lat": 34.8066616,
      "lng": 135.5749719,
      "staffName": "未割当"
    },
    {
      "name": "ローレルコート茨木桜通り(913号室)",
      "addr": "大阪府茨木市水尾2-1-35",
      "lat": 34.8066081,
      "lng": 135.5724532,
      "staffName": "未割当"
    },
    {
      "name": "コーポ水尾",
      "addr": "大阪府茨木市水尾2-11-20",
      "lat": 34.8061396,
      "lng": 135.5768038,
      "staffName": "未割当"
    },
    {
      "name": "グリーンタウン茨木　６号館",
      "addr": "大阪府茨木市水尾3-11",
      "lat": 34.8037539,
      "lng": 135.5760675,
      "staffName": "未割当"
    },
    {
      "name": "戸建　（奥平　様）",
      "addr": "大阪府茨木市水尾3-4-14",
      "lat": 34.8039101,
      "lng": 135.5739343,
      "staffName": "未割当"
    },
    {
      "name": "戸建　（竹中　様）",
      "addr": "大阪府茨木市水尾3-5-5",
      "lat": 34.8037315,
      "lng": 135.5738839,
      "staffName": "未割当"
    },
    {
      "name": "戸建　（永吉　様）",
      "addr": "大阪府茨木市水尾3-6-4",
      "lat": 34.803281,
      "lng": 135.5732841,
      "staffName": "未割当"
    },
    {
      "name": "ボナール水尾202号室",
      "addr": "大阪府茨木市水尾3-3-15",
      "lat": 34.8046119,
      "lng": 135.5754405,
      "staffName": "未割当"
    },
    {
      "name": "戸建　（厚見　様）",
      "addr": "大阪府茨木市水尾4-1-10",
      "lat": 34.8073099,
      "lng": 135.5778086,
      "staffName": "未割当"
    },
    {
      "name": "戸建　（廣岡　様）",
      "addr": "大阪府茨木市水尾4-1-18",
      "lat": 34.8069835,
      "lng": 135.5777761,
      "staffName": "未割当"
    },
    {
      "name": "戸建　（藤永　様）",
      "addr": "大阪府茨木市水尾4-2-33",
      "lat": 34.8067361,
      "lng": 135.5792277,
      "staffName": "未割当"
    },
    {
      "name": "戸建　（岡田　様）",
      "addr": "大阪府茨木市水尾4-2-7-5",
      "lat": 34.80740850000001,
      "lng": 135.578302,
      "staffName": "未割当"
    },
    {
      "name": "戸建　（貴船　様）",
      "addr": "大阪府茨木市水尾4-3-5",
      "lat": 34.8067189,
      "lng": 135.5787046,
      "staffName": "未割当"
    },
    {
      "name": "戸建　（ナガミネ　様）",
      "addr": "大阪府茨木市水尾4-4-7",
      "lat": 34.8065608,
      "lng": 135.5779518,
      "staffName": "未割当"
    },
    {
      "name": "奥野マンション",
      "addr": "大阪府摂津市昭和園5-29",
      "lat": 34.7893126,
      "lng": 135.5589206,
      "staffName": "担当3"
    },
    {
      "name": "メゾンみやび",
      "addr": "大阪府摂津市昭和園5-5",
      "lat": 34.7894229,
      "lng": 135.5589627,
      "staffName": "担当3"
    },
    {
      "name": "益様（戸建）",
      "addr": "大阪府摂津市桜町1-13-2",
      "lat": 34.7903256,
      "lng": 135.5613643,
      "staffName": "未割当"
    }
  ]
}