{
  "mode": "staff",
  "staffName": "担当2",
  "pref": "27",
  "d": "2050020,2050330,2050340,2050390,211014002",
  "kinshi": [
    {
      "name": "セントラルステージ千里青葉丘",
      "addr": "大阪府吹田市青葉丘南12-27",
      "lat": 34.8059142,
      "lng": 135.550336,
      "staffName": "担当2"
    },
    {
      "name": "アリスト吹田新芦屋ヒルズ",
      "addr": "大阪府吹田市新芦屋上10-1",
      "lat": 34.8022997,
      "lng": 135.5519463,
      "staffName": "担当2"
    },
    {
      "name": "戸建（ユルギ様）",
      "addr": "大阪府吹田市新芦屋上1-41",
      "lat": 34.7984018,
      "lng": 135.5520268,
      "staffName": "担当2"
    },
    {
      "name": "メゾン千里丘１番街　全棟",
      "addr": "大阪府吹田市新芦屋上23",
      "lat": 34.8007103,
      "lng": 135.5489672,
      "staffName": "担当2"
    },
    {
      "name": "-Ｃメゾン千里丘１番街Ｃ棟",
      "addr": "大阪府吹田市新芦屋上23",
      "lat": 34.8007103,
      "lng": 135.5489672,
      "staffName": "担当2"
    },
    {
      "name": "ルナコート千里丘の町",
      "addr": "大阪府吹田市新芦屋上2-60",
      "lat": 34.7998318,
      "lng": 135.5514366,
      "staffName": "担当2"
    },
    {
      "name": "メゾン千里丘４番街　全棟",
      "addr": "大阪府吹田市新芦屋上29",
      "lat": 34.80249420000001,
      "lng": 135.550884,
      "staffName": "担当2"
    },
    {
      "name": "ソフィア千里丘ブライトスクエア",
      "addr": "大阪府吹田市新芦屋下15",
      "lat": 34.80032620000001,
      "lng": 135.5537962,
      "staffName": "担当2"
    },
    {
      "name": "シャルム千里丘",
      "addr": "大阪府吹田市新芦屋下21-27",
      "lat": 34.8019669,
      "lng": 135.5532967,
      "staffName": "担当2"
    },
    {
      "name": "ローレルコート千里丘アウレリア",
      "addr": "大阪府吹田市新芦屋下13-6",
      "lat": 34.7990522,
      "lng": 135.5537522,
      "staffName": "担当2"
    },
    {
      "name": "ルネシーズンズ千里の丘　全棟",
      "addr": "大阪府吹田市千里丘上36",
      "lat": 34.798926,
      "lng": 135.5486355,
      "staffName": "担当2"
    },
    {
      "name": "ライオンズマンション千里丘【必ず管理人の許可が必要】",
      "addr": "大阪府吹田市千里丘上35",
      "lat": 34.7985389,
      "lng": 135.5504427,
      "staffName": "担当2"
    },
    {
      "name": "桑原様宅",
      "addr": "大阪府茨木市宇野辺2-3-17",
      "lat": 34.8030992,
      "lng": 135.5554543,
      "staffName": "担当2"
    },
    {
      "name": "ラフィーナ茨木(404号室 波多江様宅)",
      "addr": "大阪府茨木市宇野辺2-5-34",
      "lat": 34.8051603,
      "lng": 135.5548653,
      "staffName": "担当2"
    }
  ]
}