{
  "mode": "staff",
  "staffName": "担当3",
  "pref": "27",
  "d": "141045001,141045002,141149001,141149002,141037001,141037002,141115001,141115002,1411410,1410930,141026001,141026002,1410500,141122001,141122002,141122003,141154001,141154002,141154003,141154005,141154006,141014001,141014002,141014004,141014005,141014006,141125001,141125002,141125003,141125004,1410700,1411570",
  "kinshi": [
    {
      "name": "パークシティ堺東タワーズブライト（1211号室）",
      "addr": "大阪府堺市堺区北花田口町1-2-15",
      "lat": 34.5781344,
      "lng": 135.4821933,
      "staffName": "担当3"
    },
    {
      "name": "丁1-30フェニックスレジデンス堺東",
      "addr": "大阪府堺市堺区北花田口町2",
      "lat": 34.5777465,
      "lng": 135.4835117,
      "staffName": "担当3"
    },
    {
      "name": "関谷興業(ヤ)",
      "addr": "大阪府堺市堺区翁橋町1-4-10",
      "lat": 34.5738746,
      "lng": 135.4792557,
      "staffName": "担当3"
    },
    {
      "name": "丁2-16戸建（マエダ様）",
      "addr": "大阪府堺市堺区南安井町5",
      "lat": 34.5701531,
      "lng": 135.4790948,
      "staffName": "担当3"
    },
    {
      "name": "マエダ様(戸建)",
      "addr": "大阪府堺市堺区南安井町５-2-16",
      "lat": 34.5698172,
      "lng": 135.4792801,
      "staffName": "担当3"
    },
    {
      "name": "丁1-5堺東グリーンハイツA棟・B棟",
      "addr": "大阪府堺市堺区賑町4",
      "lat": 34.5680142,
      "lng": 135.4777698,
      "staffName": "担当3"
    }
  ]
}