{
  "mode": "staff",
  "staffName": "担当2",
  "pref": "27",
  "d": "124002004,124002005,124002006,124014004",
  "kinshi": [
    {
      "name": "ライオンズスクエア鶴見緑地",
      "addr": "大阪府大阪市鶴見区鶴見4-11-45",
      "lat": 34.704028327,
      "lng": 135.563899506,
      "staffName": "担当2"
    },
    {
      "name": "グラヴィール鶴見",
      "addr": "大阪府大阪市鶴見区鶴見4-7-21",
      "lat": 34.705105662,
      "lng": 135.562197953,
      "staffName": "担当2"
    },
    {
      "name": "メゾン・ド・グリシーヌ",
      "addr": "大阪府大阪市鶴見区鶴見4-8-17",
      "lat": 34.703991111,
      "lng": 135.562029339,
      "staffName": "担当2"
    },
    {
      "name": "鶴見スカイハイツ",
      "addr": "大阪府大阪市鶴見区鶴見4-4-10",
      "lat": 34.706111921,
      "lng": 135.560373852,
      "staffName": "担当2"
    },
    {
      "name": "グリーンサイド鶴見",
      "addr": "大阪府大阪市鶴見区鶴見5-1-17",
      "lat": 34.70683819100001,
      "lng": 135.560958776,
      "staffName": "担当2"
    },
    {
      "name": "メゾンシュールプラージュ",
      "addr": "大阪府大阪市鶴見区鶴見5-5-16",
      "lat": 34.707056644,
      "lng": 135.562534283,
      "staffName": "担当2"
    },
    {
      "name": "メイツ鶴見緑地(204号室 品川)",
      "addr": "大阪府大阪市鶴見区横堤4-3-36-204",
      "lat": 34.706857,
      "lng": 135.569918,
      "staffName": "担当2"
    },
    {
      "name": "向田様(戸建)",
      "addr": "大阪府大阪市鶴見区横堤4-13-35",
      "lat": 34.705964666,
      "lng": 135.570574352,
      "staffName": "担当2"
    }
  ]
}