{
  "mode": "admin",
  "pref": "27",
  "d": "5:227206001,227206002,227207001,227207002;10:227050001,227050002,227050003,227050004,227050005,227050006,227051001,227051002,227051003,227051004,227051005,227051006,227051007,227052001,227052002,227052003,227052004,227052005;11:2272220,227049001,227049002",
  "pw": "9af15b336e6a9619928537df30b2e6a2376569fcf9d7e773eccede65606529a0",
  "kinshi": [
    {
      "name": "",
      "addr": "御厨東2丁目8-3セレッソコート八戸ノ里ハートランドサウスビュー",
      "lat": 34.6672161,
      "lng": 135.5936641,
      "staffName": "未判定"
    },
    {
      "name": "",
      "addr": "御厨東1丁目2-16ライオンズマンション八戸ノ里壱番館",
      "lat": 34.6675314,
      "lng": 135.5922602,
      "staffName": "未判定"
    },
    {
      "name": "",
      "addr": "御厨東1丁目2-21ライオンズマンション八戸ノ里弐番館",
      "lat": 34.6675412,
      "lng": 135.5929101,
      "staffName": "未判定"
    },
    {
      "name": "",
      "addr": "御厨東2丁目8-6セレッソコート八戸ノ里ハートランドイーストビュー",
      "lat": 34.6674486,
      "lng": 135.5937039,
      "staffName": "未判定"
    },
    {
      "name": "",
      "addr": "御厨東1丁目9-19サンメゾン八戸ノ里",
      "lat": 34.670159,
      "lng": 135.5920897,
      "staffName": "未判定"
    },
    {
      "name": "",
      "addr": "御厨中1丁目4-23コージースクエア小阪東",
      "lat": 34.6689681,
      "lng": 135.5865709,
      "staffName": "未判定"
    },
    {
      "name": "",
      "addr": "御厨南1丁目1-32エステムコート八戸ノ里ステーションプレッソ",
      "lat": 34.6651265,
      "lng": 135.5877544,
      "staffName": "未判定"
    },
    {
      "name": "",
      "addr": "御厨南3丁目1-46メロディーハイム八戸ノ里",
      "lat": 34.6649316,
      "lng": 135.592434,
      "staffName": "未判定"
    },
    {
      "name": "",
      "addr": "御厨南3丁目1-37八戸ノ里第2ガーデンハイツ",
      "lat": 34.6649432,
      "lng": 135.5935926,
      "staffName": "未判定"
    },
    {
      "name": "エルグラン小阪アーバンコンフォート",
      "addr": "御厨栄町2丁目7-22",
      "lat": 34.6682661,
      "lng": 135.5810982,
      "staffName": "担当12"
    },
    {
      "name": "小阪ハイライフ",
      "addr": "御厨栄町1丁目3-13",
      "lat": 34.6667072,
      "lng": 135.5811979,
      "staffName": "担当12"
    },
    {
      "name": "小阪オリエントハウス",
      "addr": "御厨栄町1丁目2-4",
      "lat": 34.6665606,
      "lng": 135.5805429,
      "staffName": "担当12"
    },
    {
      "name": "藤和シティホームズ小阪",
      "addr": "御厨栄町2丁目9-25",
      "lat": 34.6674391,
      "lng": 135.5829226,
      "staffName": "担当12"
    },
    {
      "name": "ディモア小阪レジデンス",
      "addr": "御厨栄町1丁目2-7",
      "lat": 34.666893,
      "lng": 135.5806099,
      "staffName": "担当12"
    },
    {
      "name": "ブリリア小阪",
      "addr": "御厨栄町3丁目4-4",
      "lat": 34.6690649,
      "lng": 135.5835475,
      "staffName": "担当12"
    },
    {
      "name": "サーパス小阪",
      "addr": "御厨栄町2丁目6",
      "lat": 34.6688934,
      "lng": 135.5807056,
      "staffName": "担当12"
    },
    {
      "name": "サンピア小阪",
      "addr": "御厨栄町2丁目3-11",
      "lat": 34.6674718,
      "lng": 135.5807518,
      "staffName": "担当12"
    },
    {
      "name": "",
      "addr": "高井田28-55エクセラート高井田",
      "lat": 34.677912,
      "lng": 135.5727114,
      "staffName": "未判定"
    },
    {
      "name": "",
      "addr": "高井田28-39デ・リード高井田駅前",
      "lat": 34.6776996,
      "lng": 135.5730064,
      "staffName": "未判定"
    },
    {
      "name": "",
      "addr": "高井田8-7インプレスト河内永和フローラルガーデン",
      "lat": 34.6704466,
      "lng": 135.5733295,
      "staffName": "未判定"
    },
    {
      "name": "",
      "addr": "高井田28-36アービング高井田中央",
      "lat": 34.6776977,
      "lng": 135.5731539,
      "staffName": "未判定"
    },
    {
      "name": "ヴェリテ永和駅前",
      "addr": "高井田元町1丁目2-36",
      "lat": 34.6648234,
      "lng": 135.573744,
      "staffName": "担当11"
    },
    {
      "name": "ローレルコート小阪",
      "addr": "高井田元町2丁目13-30",
      "lat": 34.6654469,
      "lng": 135.5766207,
      "staffName": "担当11"
    },
    {
      "name": "リベールフォレスタ永和駅前",
      "addr": "高井田元町2丁目8-18",
      "lat": 34.6648958,
      "lng": 135.5750322,
      "staffName": "担当11"
    },
    {
      "name": "レックスシティ小阪",
      "addr": "高井田元町2丁目4-5",
      "lat": 34.664652,
      "lng": 135.5775501,
      "staffName": "担当11"
    },
    {
      "name": "永和グランドハイツ",
      "addr": "高井田元町2丁目9-11",
      "lat": 34.6648597,
      "lng": 135.5743258,
      "staffName": "担当11"
    },
    {
      "name": "",
      "addr": "高井田西5丁目4-24リビオ高井田オーナーズゲート",
      "lat": 34.6779591,
      "lng": 135.5641438,
      "staffName": "未判定"
    },
    {
      "name": "",
      "addr": "高井田西5丁目1-34ロイヤルシャトー高井田",
      "lat": 34.6771182,
      "lng": 135.5648924,
      "staffName": "未判定"
    },
    {
      "name": "",
      "addr": "高井田西5丁目4-37アービング高井田本通シティフロント",
      "lat": 34.6780061,
      "lng": 135.5653361,
      "staffName": "未判定"
    },
    {
      "name": "",
      "addr": "高井田本通6丁目3シティテラス高井田",
      "lat": 34.6774732,
      "lng": 135.5679396,
      "staffName": "未判定"
    },
    {
      "name": "",
      "addr": "高井田本通7丁目1-19ベルデフラッツ長田ウエスト",
      "lat": 34.6788625,
      "lng": 135.5683839,
      "staffName": "未判定"
    },
    {
      "name": "",
      "addr": "高井田中5丁目7-8コムズシティ高井田",
      "lat": 34.677851,
      "lng": 135.5719726,
      "staffName": "未判定"
    },
    {
      "name": "",
      "addr": "高井田中5丁目64-1プレミアムレジデンス高井田",
      "lat": 34.6772646,
      "lng": 135.5703143,
      "staffName": "未判定"
    },
    {
      "name": "",
      "addr": "高井田中1丁目8-30アクロシャトー永和",
      "lat": 34.66909700000001,
      "lng": 135.571218,
      "staffName": "未判定"
    },
    {
      "name": "",
      "addr": "永和1丁目17-12ライオンズ永和レジデンス",
      "lat": 34.6597625,
      "lng": 135.5727495,
      "staffName": "未判定"
    },
    {
      "name": "",
      "addr": "永和1丁目8-3シャンティー永和",
      "lat": 34.6627779,
      "lng": 135.5725749,
      "staffName": "未判定"
    },
    {
      "name": "",
      "addr": "永和1丁目26-20アクロシャトー俊徳道",
      "lat": 34.6576805,
      "lng": 135.5733795,
      "staffName": "未判定"
    },
    {
      "name": "",
      "addr": "永和1丁目3-10ローレルコート永和",
      "lat": 34.663681,
      "lng": 135.5735877,
      "staffName": "未判定"
    },
    {
      "name": "",
      "addr": "永和2丁目3-18藤和シティホームズ永和",
      "lat": 34.663233,
      "lng": 135.5756583,
      "staffName": "未判定"
    },
    {
      "name": "",
      "addr": "永和1丁目2-6グランコート永和駅前",
      "lat": 34.6640014,
      "lng": 135.5735532,
      "staffName": "未判定"
    },
    {
      "name": "",
      "addr": "近江堂1丁目15-17弥刀グリーンハイツ",
      "lat": 34.6433312,
      "lng": 135.5829071,
      "staffName": "未判定"
    },
    {
      "name": "",
      "addr": "友井5丁目2-54弥刀ハウス",
      "lat": 34.6444542,
      "lng": 135.5905088,
      "staffName": "未判定"
    },
    {
      "name": "",
      "addr": "友井5丁目2-20ハイマート弥刀",
      "lat": 34.6444525,
      "lng": 135.5917609,
      "staffName": "未判定"
    },
    {
      "name": "",
      "addr": "友井5丁目1-13ハイマート弥刀2番館",
      "lat": 34.6454671,
      "lng": 135.5914415,
      "staffName": "未判定"
    },
    {
      "name": "",
      "addr": "友井5丁目3-34グランコート友井",
      "lat": 34.6427935,
      "lng": 135.590857,
      "staffName": "未判定"
    },
    {
      "name": "",
      "addr": "友井5丁目3-17弥刀グリーンマンション",
      "lat": 34.643311,
      "lng": 135.59147,
      "staffName": "未判定"
    },
    {
      "name": "",
      "addr": "友井5丁目3-36ヴェルコート弥刀東",
      "lat": 34.6427243,
      "lng": 135.5906096,
      "staffName": "未判定"
    },
    {
      "name": "",
      "addr": "友井4丁目10-17グランコート弥刀",
      "lat": 34.6408389,
      "lng": 135.5903513,
      "staffName": "未判定"
    },
    {
      "name": "",
      "addr": "森河内西1丁目6-3プレミスト東大阪森河内",
      "lat": 34.681,
      "lng": 135.5650411,
      "staffName": "未判定"
    },
    {
      "name": "",
      "addr": "森河内西2丁目33-6シャルマンフジビルトモアー放出",
      "lat": 34.686794,
      "lng": 135.5659998,
      "staffName": "未判定"
    },
    {
      "name": "",
      "addr": "森河内西1丁目6-34シャトーシャンベル",
      "lat": 34.681437,
      "lng": 135.565243,
      "staffName": "未判定"
    },
    {
      "name": "",
      "addr": "森河内東1丁目21-23グランフェルティ高井田",
      "lat": 34.6813173,
      "lng": 135.569694,
      "staffName": "未判定"
    },
    {
      "name": "",
      "addr": "森河内東1丁目11-4ユニアルス高井田プレジオパークアベニュー",
      "lat": 34.6800218,
      "lng": 135.569503,
      "staffName": "未判定"
    },
    {
      "name": "",
      "addr": "小阪2丁目17-3エスリード小阪プライムプレイス",
      "lat": 34.66521669999999,
      "lng": 135.5872338,
      "staffName": "未判定"
    },
    {
      "name": "",
      "addr": "小阪2丁目4エスリード小阪ミッドゲート",
      "lat": 34.6644297,
      "lng": 135.5853636,
      "staffName": "未判定"
    },
    {
      "name": "",
      "addr": "小阪3丁目4-54八戸ノ里グランドマンションA棟",
      "lat": 34.6641828,
      "lng": 135.591505,
      "staffName": "未判定"
    },
    {
      "name": "",
      "addr": "小阪3丁目4-47八戸ノ里グランドマンションB棟",
      "lat": 34.6643816,
      "lng": 135.5915972,
      "staffName": "未判定"
    },
    {
      "name": "",
      "addr": "小阪1丁目12-3小阪駅前コーポ",
      "lat": 34.6646489,
      "lng": 135.5826526,
      "staffName": "未判定"
    },
    {
      "name": "",
      "addr": "小阪3丁目5-8八戸ノ里ガーデンハイツ",
      "lat": 34.6642873,
      "lng": 135.5934535,
      "staffName": "未判定"
    },
    {
      "name": "",
      "addr": "小阪2丁目4-28ローレルコート小阪二丁目",
      "lat": 34.6643787,
      "lng": 135.5844374,
      "staffName": "未判定"
    },
    {
      "name": "",
      "addr": "小阪1丁目13-32ローレルコート小阪一丁目",
      "lat": 34.6644802,
      "lng": 135.5831612,
      "staffName": "未判定"
    },
    {
      "name": "",
      "addr": "小阪1丁目1ブランズ小阪駅前",
      "lat": 34.6637816,
      "lng": 135.5821194,
      "staffName": "未判定"
    },
    {
      "name": "",
      "addr": "小阪1丁目10-35エスリード小阪駅前",
      "lat": 34.665214,
      "lng": 135.5825761,
      "staffName": "未判定"
    },
    {
      "name": "",
      "addr": "小阪2丁目16-14グレイスロワ八戸ノ里",
      "lat": 34.6646646,
      "lng": 135.5877448,
      "staffName": "未判定"
    },
    {
      "name": "",
      "addr": "小阪1丁目10-31ユニ小阪",
      "lat": 34.665259,
      "lng": 135.5829363,
      "staffName": "未判定"
    },
    {
      "name": "",
      "addr": "小阪1丁目13-10ラガール小阪",
      "lat": 34.6648398,
      "lng": 135.5830405,
      "staffName": "未判定"
    },
    {
      "name": "エスリード小阪本町",
      "addr": "小阪本町1丁目2-15",
      "lat": 34.6629833,
      "lng": 135.5803918,
      "staffName": "担当4"
    },
    {
      "name": "エスリード小阪本町第2",
      "addr": "小阪本町1丁目11-1",
      "lat": 34.661804,
      "lng": 135.5812681,
      "staffName": "担当4"
    },
    {
      "name": "ソレイユ小阪",
      "addr": "小阪本町1丁目1-11",
      "lat": 34.663407,
      "lng": 135.5800357,
      "staffName": "担当4"
    },
    {
      "name": "",
      "addr": "下小阪5丁目16-15プレサンスロジェ八戸ノ里2",
      "lat": 34.6631807,
      "lng": 135.5937231,
      "staffName": "未判定"
    },
    {
      "name": "",
      "addr": "下小阪1丁目2-7グランドメゾン小阪",
      "lat": 34.663617,
      "lng": 135.5837027,
      "staffName": "未判定"
    },
    {
      "name": "",
      "addr": "下小阪2丁目6-17コスモハイツ小阪",
      "lat": 34.6635472,
      "lng": 135.5850072,
      "staffName": "未判定"
    },
    {
      "name": "",
      "addr": "下小阪5丁目83-3カサーレ八戸ノ里ファーストプレイス",
      "lat": 34.6632307,
      "lng": 135.5909222,
      "staffName": "未判定"
    },
    {
      "name": "",
      "addr": "下小阪4丁目11-24プレサンスロジェ八戸ノ里グリーンアベニュー",
      "lat": 34.6615531,
      "lng": 135.5940293,
      "staffName": "未判定"
    },
    {
      "name": "",
      "addr": "下小阪5丁目5-13グランブルー八戸ノ里",
      "lat": 34.6635332,
      "lng": 135.59181,
      "staffName": "未判定"
    },
    {
      "name": "",
      "addr": "下小阪5丁目6-3大発ロイヤルハイム八戸ノ里駅前",
      "lat": 34.662684,
      "lng": 135.5910807,
      "staffName": "未判定"
    },
    {
      "name": "",
      "addr": "下小阪1丁目1-28ディアステージ小阪",
      "lat": 34.6635257,
      "lng": 135.5832159,
      "staffName": "未判定"
    },
    {
      "name": "",
      "addr": "下小阪2丁目1-21エスリード小阪",
      "lat": 34.6637406,
      "lng": 135.5843668,
      "staffName": "未判定"
    },
    {
      "name": "",
      "addr": "西上小阪15-1グランアッシュ上小阪",
      "lat": 34.6508379,
      "lng": 135.57935,
      "staffName": "未判定"
    }
  ]
}