{
  "mode": "staff",
  "staffName": "担当2",
  "pref": "27",
  "d": "2050090,2050730,205079002",
  "kinshi": [
    {
      "name": "プラウド江坂 　全棟",
      "addr": "大阪府吹田市江の木町11-38",
      "lat": 34.7560789,
      "lng": 135.4928364,
      "staffName": "担当2"
    },
    {
      "name": "ハイツ冨士",
      "addr": "大阪府吹田市江の木町1-23",
      "lat": 34.7564917,
      "lng": 135.4960729,
      "staffName": "担当2"
    },
    {
      "name": "江坂・江の木公園スカイハイツ",
      "addr": "大阪府吹田市江の木町12-5",
      "lat": 34.7555073,
      "lng": 135.49355,
      "staffName": "担当2"
    },
    {
      "name": "パルムハウス江坂",
      "addr": "大阪府吹田市江の木町17-20",
      "lat": 34.7549227,
      "lng": 135.4960616,
      "staffName": "担当2"
    },
    {
      "name": "リバフォールアネックス",
      "addr": "大阪府吹田市江の木町23-11",
      "lat": 34.7544999,
      "lng": 135.492198,
      "staffName": "担当2"
    },
    {
      "name": "ネバーランド江坂江の木町",
      "addr": "大阪府吹田市江の木町24-9",
      "lat": 34.7536402,
      "lng": 135.4924967,
      "staffName": "担当2"
    },
    {
      "name": "江坂グランドハイツ北",
      "addr": "大阪府吹田市江の木町2-5",
      "lat": 34.7570652,
      "lng": 135.4956957,
      "staffName": "担当2"
    },
    {
      "name": "シティコープ江坂",
      "addr": "大阪府吹田市江の木町17-37",
      "lat": 34.7559168,
      "lng": 135.4959709,
      "staffName": "担当2"
    },
    {
      "name": "ノルデンハイム江坂アドバンス",
      "addr": "大阪府吹田市江の木町17-10",
      "lat": 34.7551688,
      "lng": 135.4964006,
      "staffName": "担当2"
    },
    {
      "name": "豊友マンション",
      "addr": "大阪府吹田市江の木町2-20",
      "lat": 34.7562617,
      "lng": 135.495303,
      "staffName": "担当2"
    },
    {
      "name": "ＧＳハイム第一江坂",
      "addr": "大阪府吹田市広芝町11-5",
      "lat": 34.7556318,
      "lng": 135.4977324,
      "staffName": "担当2"
    },
    {
      "name": "パレス江坂",
      "addr": "大阪府吹田市広芝町14-22",
      "lat": 34.7556004,
      "lng": 135.5009773,
      "staffName": "担当2"
    },
    {
      "name": "スカーレット江坂",
      "addr": "大阪府吹田市広芝町18-25",
      "lat": 34.754335,
      "lng": 135.4974408,
      "staffName": "担当2"
    },
    {
      "name": "ノルデンハイム江坂",
      "addr": "大阪府吹田市広芝町4-18",
      "lat": 34.7571275,
      "lng": 135.4994476,
      "staffName": "担当2"
    },
    {
      "name": "ペルル江坂",
      "addr": "大阪府吹田市広芝町4-5",
      "lat": 34.7570856,
      "lng": 135.500183,
      "staffName": "担当2"
    },
    {
      "name": "バーゼル江坂",
      "addr": "大阪府吹田市広芝町6-39",
      "lat": 34.7566859,
      "lng": 135.5018786,
      "staffName": "担当2"
    },
    {
      "name": "グレイスフル江坂（東栄物産ビル17）",
      "addr": "大阪府吹田市広芝町9-27",
      "lat": 34.7564608,
      "lng": 135.4982451,
      "staffName": "担当2"
    },
    {
      "name": "コニーハイツ",
      "addr": "大阪府吹田市広芝町12-1",
      "lat": 34.7558266,
      "lng": 135.4986427,
      "staffName": "担当2"
    },
    {
      "name": "グランアッシュ江坂",
      "addr": "大阪府吹田市広芝町13-35",
      "lat": 34.7557486,
      "lng": 135.4999248,
      "staffName": "担当2"
    },
    {
      "name": "ノルデンハイム江坂3",
      "addr": "大阪府吹田市広芝町3-24",
      "lat": 34.7573186,
      "lng": 135.5006925,
      "staffName": "担当2"
    },
    {
      "name": "ノルデンハイム江坂アネックス",
      "addr": "大阪府吹田市広芝町4-27",
      "lat": 34.7572773,
      "lng": 135.4992043,
      "staffName": "担当2"
    },
    {
      "name": "グランシス江坂",
      "addr": "大阪府吹田市広芝町18-31",
      "lat": 34.7543831,
      "lng": 135.4979249,
      "staffName": "担当2"
    },
    {
      "name": "ノルデンタワー江坂プレミアム",
      "addr": "大阪府吹田市広芝町11-8",
      "lat": 34.75529270000001,
      "lng": 135.4976737,
      "staffName": "担当2"
    },
    {
      "name": "第3丸福マンション",
      "addr": "大阪府吹田市南金田2-15-8",
      "lat": 34.7569339,
      "lng": 135.5049779,
      "staffName": "担当2"
    }
  ]
}